[{"NAME":"Aarons Pass","POSTCODE":2850,"LATITUDE":-32.894875,"LONGITUDE":149.804947,"STATE_NAME":"NSW"},{"NAME":"Abbotsbury","POSTCODE":2176,"LATITUDE":-33.869968,"LONGITUDE":150.865707,"STATE_NAME":"NSW"},{"NAME":"Abbotsford","POSTCODE":2046,"LATITUDE":-33.848152,"LONGITUDE":151.128143,"STATE_NAME":"NSW"},{"NAME":"Abercrombie","POSTCODE":2795,"LATITUDE":-33.389397,"LONGITUDE":149.550171,"STATE_NAME":"NSW"},{"NAME":"Abercrombie River","POSTCODE":2795,"LATITUDE":-33.911297,"LONGITUDE":149.346725,"STATE_NAME":"NSW"},{"NAME":"Aberdare","POSTCODE":2325,"LATITUDE":-32.841282,"LONGITUDE":151.366272,"STATE_NAME":"NSW"},{"NAME":"Aberdeen","POSTCODE":2336,"LATITUDE":-32.167606,"LONGITUDE":150.891525,"STATE_NAME":"NSW"},{"NAME":"Aberdeen","POSTCODE":2359,"LATITUDE":-29.990816,"LONGITUDE":151.04631,"STATE_NAME":"NSW"},{"NAME":"Aberfoyle","POSTCODE":2350,"LATITUDE":-30.259014,"LONGITUDE":152.015656,"STATE_NAME":"NSW"},{"NAME":"Aberglasslyn","POSTCODE":2320,"LATITUDE":-32.700809,"LONGITUDE":151.527344,"STATE_NAME":"NSW"},{"NAME":"Abermain","POSTCODE":2326,"LATITUDE":-32.814991,"LONGITUDE":151.427994,"STATE_NAME":"NSW"},{"NAME":"Abernethy","POSTCODE":2325,"LATITUDE":-32.88129,"LONGITUDE":151.396957,"STATE_NAME":"NSW"},{"NAME":"Abington","POSTCODE":2350,"LATITUDE":-30.303312,"LONGITUDE":151.205627,"STATE_NAME":"NSW"},{"NAME":"Acacia Creek","POSTCODE":2476,"LATITUDE":-28.375261,"LONGITUDE":152.324249,"STATE_NAME":"NSW"},{"NAME":"Acacia Gardens","POSTCODE":2763,"LATITUDE":-33.734386,"LONGITUDE":150.91272,"STATE_NAME":"NSW"},{"NAME":"Adaminaby","POSTCODE":2629,"LATITUDE":-35.996651,"LONGITUDE":148.773972,"STATE_NAME":"NSW"},{"NAME":"Adamstown","POSTCODE":2289,"LATITUDE":-32.936909,"LONGITUDE":151.725311,"STATE_NAME":"NSW"},{"NAME":"Adamstown Heights","POSTCODE":2289,"LATITUDE":-32.949947,"LONGITUDE":151.71315,"STATE_NAME":"NSW"},{"NAME":"Adelong","POSTCODE":2729,"LATITUDE":-35.30798,"LONGITUDE":148.063797,"STATE_NAME":"NSW"},{"NAME":"Adjungbilly","POSTCODE":2727,"LATITUDE":-35.083996,"LONGITUDE":148.402374,"STATE_NAME":"NSW"},{"NAME":"Afterlee","POSTCODE":2474,"LATITUDE":-28.586899,"LONGITUDE":152.829117,"STATE_NAME":"NSW"},{"NAME":"Agnes Banks","POSTCODE":2753,"LATITUDE":-33.61293,"LONGITUDE":150.712952,"STATE_NAME":"NSW"},{"NAME":"Airds","POSTCODE":2560,"LATITUDE":-34.084057,"LONGITUDE":150.828995,"STATE_NAME":"NSW"},{"NAME":"Akolele","POSTCODE":2546,"LATITUDE":-36.343498,"LONGITUDE":150.074951,"STATE_NAME":"NSW"},{"NAME":"Albert","POSTCODE":2873,"LATITUDE":-32.351959,"LONGITUDE":147.506485,"STATE_NAME":"NSW"},{"NAME":"Albion Park","POSTCODE":2527,"LATITUDE":-34.570728,"LONGITUDE":150.775711,"STATE_NAME":"NSW"},{"NAME":"Albion Park Rail","POSTCODE":2527,"LATITUDE":-34.561161,"LONGITUDE":150.796112,"STATE_NAME":"NSW"},{"NAME":"Albury","POSTCODE":2640,"LATITUDE":-36.08078,"LONGITUDE":146.916473,"STATE_NAME":"NSW"},{"NAME":"Albury Msc","POSTCODE":2708,"LATITUDE":-31.253218,"LONGITUDE":146.921097,"STATE_NAME":"NSW"},{"NAME":"Aldavilla","POSTCODE":2440,"LATITUDE":-31.077494,"LONGITUDE":152.76001,"STATE_NAME":"NSW"},{"NAME":"Alectown","POSTCODE":2870,"LATITUDE":-32.932835,"LONGITUDE":148.240692,"STATE_NAME":"NSW"},{"NAME":"Alexandria","POSTCODE":1435,"LATITUDE":-19.116667,"LONGITUDE":136.766663,"STATE_NAME":"NSW"},{"NAME":"Alexandria","POSTCODE":2015,"LATITUDE":-33.901882,"LONGITUDE":151.200012,"STATE_NAME":"NSW"},{"NAME":"Alfords Point","POSTCODE":2234,"LATITUDE":-33.993069,"LONGITUDE":151.024506,"STATE_NAME":"NSW"},{"NAME":"Alfredtown","POSTCODE":2650,"LATITUDE":-35.161491,"LONGITUDE":147.51062,"STATE_NAME":"NSW"},{"NAME":"Alice","POSTCODE":2469,"LATITUDE":-29.051422,"LONGITUDE":152.589035,"STATE_NAME":"NSW"},{"NAME":"Alison","POSTCODE":2259,"LATITUDE":-33.275913,"LONGITUDE":151.404678,"STATE_NAME":"NSW"},{"NAME":"Alison","POSTCODE":2420,"LATITUDE":-32.445454,"LONGITUDE":151.774612,"STATE_NAME":"NSW"},{"NAME":"Allambie Heights","POSTCODE":2100,"LATITUDE":-33.765533,"LONGITUDE":151.250748,"STATE_NAME":"NSW"},{"NAME":"Allandale","POSTCODE":2320,"LATITUDE":-32.721066,"LONGITUDE":151.413971,"STATE_NAME":"NSW"},{"NAME":"Allawah","POSTCODE":2218,"LATITUDE":-33.970242,"LONGITUDE":151.115372,"STATE_NAME":"NSW"},{"NAME":"Alleena","POSTCODE":2671,"LATITUDE":-34.074078,"LONGITUDE":147.140808,"STATE_NAME":"NSW"},{"NAME":"Allgomera","POSTCODE":2441,"LATITUDE":-30.808792,"LONGITUDE":152.807495,"STATE_NAME":"NSW"},{"NAME":"Allworth","POSTCODE":2425,"LATITUDE":-32.538982,"LONGITUDE":151.958206,"STATE_NAME":"NSW"},{"NAME":"Allynbrook","POSTCODE":2311,"LATITUDE":-32.363335,"LONGITUDE":151.536957,"STATE_NAME":"NSW"},{"NAME":"Alma Park","POSTCODE":2659,"LATITUDE":-35.596462,"LONGITUDE":146.792664,"STATE_NAME":"NSW"},{"NAME":"Alpine","POSTCODE":2575,"LATITUDE":-34.405201,"LONGITUDE":150.50769,"STATE_NAME":"NSW"},{"NAME":"Alstonvale","POSTCODE":2477,"LATITUDE":-28.795519,"LONGITUDE":153.44899,"STATE_NAME":"NSW"},{"NAME":"Alstonville","POSTCODE":2477,"LATITUDE":-28.841452,"LONGITUDE":153.439163,"STATE_NAME":"NSW"},{"NAME":"Alumy Creek","POSTCODE":2460,"LATITUDE":-29.640362,"LONGITUDE":152.951996,"STATE_NAME":"NSW"},{"NAME":"Amaroo","POSTCODE":2866,"LATITUDE":-33.162098,"LONGITUDE":148.918503,"STATE_NAME":"NSW"},{"NAME":"Ambarvale","POSTCODE":2560,"LATITUDE":-34.085472,"LONGITUDE":150.801819,"STATE_NAME":"NSW"},{"NAME":"Anabranch North","POSTCODE":2648,"LATITUDE":-33.283978,"LONGITUDE":141.78891,"STATE_NAME":"NSW"},{"NAME":"Anabranch South","POSTCODE":2648,"LATITUDE":-33.731812,"LONGITUDE":141.810028,"STATE_NAME":"NSW"},{"NAME":"Anambah","POSTCODE":2320,"LATITUDE":-32.682304,"LONGITUDE":151.497925,"STATE_NAME":"NSW"},{"NAME":"Ando","POSTCODE":2631,"LATITUDE":-36.738506,"LONGITUDE":149.261124,"STATE_NAME":"NSW"},{"NAME":"Anembo","POSTCODE":2621,"LATITUDE":-35.811291,"LONGITUDE":149.428268,"STATE_NAME":"NSW"},{"NAME":"Angledale","POSTCODE":2550,"LATITUDE":-36.624809,"LONGITUDE":149.881226,"STATE_NAME":"NSW"},{"NAME":"Angledool","POSTCODE":2834,"LATITUDE":-29.099379,"LONGITUDE":147.893692,"STATE_NAME":"NSW"},{"NAME":"Anglers Reach","POSTCODE":2629,"LATITUDE":-35.998753,"LONGITUDE":148.664703,"STATE_NAME":"NSW"},{"NAME":"Angourie","POSTCODE":2464,"LATITUDE":-29.478876,"LONGITUDE":153.359833,"STATE_NAME":"NSW"},{"NAME":"Anna Bay","POSTCODE":2316,"LATITUDE":-32.777546,"LONGITUDE":152.085953,"STATE_NAME":"NSW"},{"NAME":"Annandale","POSTCODE":2038,"LATITUDE":-33.882404,"LONGITUDE":151.172363,"STATE_NAME":"NSW"},{"NAME":"Annangrove","POSTCODE":2156,"LATITUDE":-33.671143,"LONGITUDE":150.955429,"STATE_NAME":"NSW"},{"NAME":"Appin","POSTCODE":2560,"LATITUDE":-34.19791,"LONGITUDE":150.788544,"STATE_NAME":"NSW"},{"NAME":"Apple Tree Flat","POSTCODE":2850,"LATITUDE":-32.685688,"LONGITUDE":149.705414,"STATE_NAME":"NSW"},{"NAME":"Appleby","POSTCODE":2340,"LATITUDE":-30.962532,"LONGITUDE":150.829285,"STATE_NAME":"NSW"},{"NAME":"Appletree Flat","POSTCODE":2330,"LATITUDE":-32.51432,"LONGITUDE":150.861832,"STATE_NAME":"NSW"},{"NAME":"Apsley","POSTCODE":2820,"LATITUDE":-32.59832,"LONGITUDE":148.963699,"STATE_NAME":"NSW"},{"NAME":"Arable","POSTCODE":2630,"LATITUDE":-36.36842,"LONGITUDE":148.942734,"STATE_NAME":"NSW"},{"NAME":"Arakoon","POSTCODE":2431,"LATITUDE":-30.886242,"LONGITUDE":153.070892,"STATE_NAME":"NSW"},{"NAME":"Araluen","POSTCODE":2622,"LATITUDE":-35.644684,"LONGITUDE":149.812469,"STATE_NAME":"NSW"},{"NAME":"Aratula","POSTCODE":2714,"LATITUDE":-35.795685,"LONGITUDE":145.319656,"STATE_NAME":"NSW"},{"NAME":"Arcadia","POSTCODE":2159,"LATITUDE":-33.626705,"LONGITUDE":151.039932,"STATE_NAME":"NSW"},{"NAME":"Arcadia Vale","POSTCODE":2283,"LATITUDE":-33.061237,"LONGITUDE":151.586594,"STATE_NAME":"NSW"},{"NAME":"Ardglen","POSTCODE":2338,"LATITUDE":-31.730137,"LONGITUDE":150.78392,"STATE_NAME":"NSW"},{"NAME":"Arding","POSTCODE":2358,"LATITUDE":-30.556158,"LONGITUDE":151.53096,"STATE_NAME":"NSW"},{"NAME":"Ardlethan","POSTCODE":2665,"LATITUDE":-34.357033,"LONGITUDE":146.903488,"STATE_NAME":"NSW"},{"NAME":"Argalong","POSTCODE":2720,"LATITUDE":-35.261826,"LONGITUDE":148.486038,"STATE_NAME":"NSW"},{"NAME":"Argenton","POSTCODE":2284,"LATITUDE":-32.935455,"LONGITUDE":151.62883,"STATE_NAME":"NSW"},{"NAME":"Argents Hill","POSTCODE":2449,"LATITUDE":-30.622141,"LONGITUDE":152.74736,"STATE_NAME":"NSW"},{"NAME":"Argoon","POSTCODE":2707,"LATITUDE":-34.977051,"LONGITUDE":145.657547,"STATE_NAME":"NSW"},{"NAME":"Argyle","POSTCODE":2350,"LATITUDE":-30.53793,"LONGITUDE":151.843185,"STATE_NAME":"NSW"},{"NAME":"Ariah Park","POSTCODE":2665,"LATITUDE":-34.348095,"LONGITUDE":147.219009,"STATE_NAME":"NSW"},{"NAME":"Arkell","POSTCODE":2795,"LATITUDE":-33.733437,"LONGITUDE":149.381516,"STATE_NAME":"NSW"},{"NAME":"Arkstone","POSTCODE":2795,"LATITUDE":-34.042248,"LONGITUDE":149.64299,"STATE_NAME":"NSW"},{"NAME":"Armatree","POSTCODE":2831,"LATITUDE":-31.448362,"LONGITUDE":148.483688,"STATE_NAME":"NSW"},{"NAME":"Armidale","POSTCODE":2350,"LATITUDE":-30.514343,"LONGITUDE":151.666962,"STATE_NAME":"NSW"},{"NAME":"Arncliffe","POSTCODE":2205,"LATITUDE":-33.938667,"LONGITUDE":151.145798,"STATE_NAME":"NSW"},{"NAME":"Arndell Park","POSTCODE":2148,"LATITUDE":-33.789062,"LONGITUDE":150.883743,"STATE_NAME":"NSW"},{"NAME":"Arrawarra","POSTCODE":2456,"LATITUDE":-30.060148,"LONGITUDE":153.193863,"STATE_NAME":"NSW"},{"NAME":"Arrawarra Headland","POSTCODE":2456,"LATITUDE":-30.068598,"LONGITUDE":153.198105,"STATE_NAME":"NSW"},{"NAME":"Artarmon","POSTCODE":1570,"LATITUDE":-33.868626,"LONGITUDE":151.217056,"STATE_NAME":"NSW"},{"NAME":"Artarmon","POSTCODE":2064,"LATITUDE":-33.808632,"LONGITUDE":151.184021,"STATE_NAME":"NSW"},{"NAME":"Arthurville","POSTCODE":2820,"LATITUDE":-32.566219,"LONGITUDE":148.739578,"STATE_NAME":"NSW"},{"NAME":"Arumpo","POSTCODE":2715,"LATITUDE":-33.871498,"LONGITUDE":142.886017,"STATE_NAME":"NSW"},{"NAME":"Ashbury","POSTCODE":2193,"LATITUDE":-33.898178,"LONGITUDE":151.120911,"STATE_NAME":"NSW"},{"NAME":"Ashby","POSTCODE":2463,"LATITUDE":-29.436312,"LONGITUDE":153.197235,"STATE_NAME":"NSW"},{"NAME":"Ashby Heights","POSTCODE":2463,"LATITUDE":-29.409294,"LONGITUDE":153.208725,"STATE_NAME":"NSW"},{"NAME":"Ashby Island","POSTCODE":2463,"LATITUDE":-29.426125,"LONGITUDE":153.204269,"STATE_NAME":"NSW"},{"NAME":"Ashcroft","POSTCODE":2168,"LATITUDE":-33.915421,"LONGITUDE":150.899078,"STATE_NAME":"NSW"},{"NAME":"Ashfield","POSTCODE":1800,"LATITUDE":-33.888813,"LONGITUDE":151.124573,"STATE_NAME":"NSW"},{"NAME":"Ashfield","POSTCODE":2131,"LATITUDE":-33.890972,"LONGITUDE":151.125763,"STATE_NAME":"NSW"},{"NAME":"Ashford","POSTCODE":2361,"LATITUDE":-29.321793,"LONGITUDE":151.093048,"STATE_NAME":"NSW"},{"NAME":"Ashley","POSTCODE":2400,"LATITUDE":-29.316305,"LONGITUDE":149.806839,"STATE_NAME":"NSW"},{"NAME":"Ashmont","POSTCODE":2650,"LATITUDE":-35.124931,"LONGITUDE":147.329651,"STATE_NAME":"NSW"},{"NAME":"Ashtonfield","POSTCODE":2323,"LATITUDE":-32.773205,"LONGITUDE":151.6073,"STATE_NAME":"NSW"},{"NAME":"Asquith","POSTCODE":2077,"LATITUDE":-33.687855,"LONGITUDE":151.108459,"STATE_NAME":"NSW"},{"NAME":"Atholwood","POSTCODE":2361,"LATITUDE":-28.999144,"LONGITUDE":151.058578,"STATE_NAME":"NSW"},{"NAME":"Ato Activity Statements","POSTCODE":1391,"LATITUDE":-31.253218,"LONGITUDE":146.921097,"STATE_NAME":"NSW"},{"NAME":"Attunga","POSTCODE":2345,"LATITUDE":-30.929094,"LONGITUDE":150.846466,"STATE_NAME":"NSW"},{"NAME":"Auburn","POSTCODE":1835,"LATITUDE":-33.854866,"LONGITUDE":151.033386,"STATE_NAME":"NSW"},{"NAME":"Auburn","POSTCODE":2144,"LATITUDE":-33.848515,"LONGITUDE":151.029663,"STATE_NAME":"NSW"},{"NAME":"Auburn Vale","POSTCODE":2360,"LATITUDE":-29.836094,"LONGITUDE":151.038483,"STATE_NAME":"NSW"},{"NAME":"Audley","POSTCODE":2232,"LATITUDE":-34.069458,"LONGITUDE":151.056671,"STATE_NAME":"NSW"},{"NAME":"Austinmer","POSTCODE":2515,"LATITUDE":-34.306763,"LONGITUDE":150.93425,"STATE_NAME":"NSW"},{"NAME":"Austral","POSTCODE":2179,"LATITUDE":-33.932892,"LONGITUDE":150.811951,"STATE_NAME":"NSW"},{"NAME":"Austral Eden","POSTCODE":2440,"LATITUDE":-31.021294,"LONGITUDE":152.919067,"STATE_NAME":"NSW"},{"NAME":"Australian Defence Forces","POSTCODE":2890,"LATITUDE":-35.293888,"LONGITUDE":149.163895,"STATE_NAME":"NSW"},{"NAME":"Avalon","POSTCODE":2107,"LATITUDE":-33.636024,"LONGITUDE":151.328339,"STATE_NAME":"NSW"},{"NAME":"Avalon Beach","POSTCODE":2107,"LATITUDE":-33.635777,"LONGITUDE":151.321014,"STATE_NAME":"NSW"},{"NAME":"Avisford","POSTCODE":2850,"LATITUDE":-32.742611,"LONGITUDE":149.481384,"STATE_NAME":"NSW"},{"NAME":"Avoca","POSTCODE":2577,"LATITUDE":-34.613087,"LONGITUDE":150.479202,"STATE_NAME":"NSW"},{"NAME":"Avoca Beach","POSTCODE":2251,"LATITUDE":-33.465275,"LONGITUDE":151.433945,"STATE_NAME":"NSW"},{"NAME":"Avon","POSTCODE":2574,"LATITUDE":-34.430573,"LONGITUDE":150.654648,"STATE_NAME":"NSW"},{"NAME":"Avondale","POSTCODE":2530,"LATITUDE":-34.517403,"LONGITUDE":150.750824,"STATE_NAME":"NSW"},{"NAME":"Avonside","POSTCODE":2628,"LATITUDE":-36.410603,"LONGITUDE":148.720139,"STATE_NAME":"NSW"},{"NAME":"Awaba","POSTCODE":2283,"LATITUDE":-33.012333,"LONGITUDE":151.542816,"STATE_NAME":"NSW"},{"NAME":"Aylmerton","POSTCODE":2575,"LATITUDE":-34.420677,"LONGITUDE":150.493011,"STATE_NAME":"NSW"},{"NAME":"Baan Baa","POSTCODE":2390,"LATITUDE":-30.598162,"LONGITUDE":149.952332,"STATE_NAME":"NSW"},{"NAME":"Babinda","POSTCODE":2825,"LATITUDE":-31.924217,"LONGITUDE":146.47583,"STATE_NAME":"NSW"},{"NAME":"Babyl Creek","POSTCODE":2470,"LATITUDE":-28.730068,"LONGITUDE":152.791489,"STATE_NAME":"NSW"},{"NAME":"Back Creek","POSTCODE":2372,"LATITUDE":-28.980946,"LONGITUDE":151.716553,"STATE_NAME":"NSW"},{"NAME":"Back Creek","POSTCODE":2390,"LATITUDE":-30.123341,"LONGITUDE":150.271225,"STATE_NAME":"NSW"},{"NAME":"Back Creek","POSTCODE":2422,"LATITUDE":-31.968321,"LONGITUDE":152.068787,"STATE_NAME":"NSW"},{"NAME":"Back Creek","POSTCODE":2484,"LATITUDE":-28.4051,"LONGITUDE":153.170792,"STATE_NAME":"NSW"},{"NAME":"Back Creek","POSTCODE":2622,"LATITUDE":-35.337357,"LONGITUDE":149.938538,"STATE_NAME":"NSW"},{"NAME":"Back Creek","POSTCODE":2671,"LATITUDE":-33.841156,"LONGITUDE":147.405777,"STATE_NAME":"NSW"},{"NAME":"Back Forest","POSTCODE":2535,"LATITUDE":-34.841446,"LONGITUDE":150.677872,"STATE_NAME":"NSW"},{"NAME":"Backmede","POSTCODE":2470,"LATITUDE":-28.761993,"LONGITUDE":153.020782,"STATE_NAME":"NSW"},{"NAME":"Backwater","POSTCODE":2365,"LATITUDE":-30.067818,"LONGITUDE":151.883911,"STATE_NAME":"NSW"},{"NAME":"Badgerys Creek","POSTCODE":2555,"LATITUDE":-33.885895,"LONGITUDE":150.738861,"STATE_NAME":"NSW"},{"NAME":"Badja","POSTCODE":2630,"LATITUDE":-36.035381,"LONGITUDE":149.494064,"STATE_NAME":"NSW"},{"NAME":"Baerami","POSTCODE":2333,"LATITUDE":-32.387436,"LONGITUDE":150.468307,"STATE_NAME":"NSW"},{"NAME":"Baerami Creek","POSTCODE":2333,"LATITUDE":-32.481972,"LONGITUDE":150.477951,"STATE_NAME":"NSW"},{"NAME":"Bagnoo","POSTCODE":2446,"LATITUDE":-31.46468,"LONGITUDE":152.529541,"STATE_NAME":"NSW"},{"NAME":"Bago","POSTCODE":2446,"LATITUDE":-31.479277,"LONGITUDE":152.714478,"STATE_NAME":"NSW"},{"NAME":"Bagotville","POSTCODE":2477,"LATITUDE":-28.974081,"LONGITUDE":153.407211,"STATE_NAME":"NSW"},{"NAME":"Bakers Creek","POSTCODE":2359,"LATITUDE":-30.357409,"LONGITUDE":150.983307,"STATE_NAME":"NSW"},{"NAME":"Bakers Creek","POSTCODE":2422,"LATITUDE":-31.982292,"LONGITUDE":152.099609,"STATE_NAME":"NSW"},{"NAME":"Bakers Creek","POSTCODE":2447,"LATITUDE":-30.828167,"LONGITUDE":152.711533,"STATE_NAME":"NSW"},{"NAME":"Bakers Swamp","POSTCODE":2820,"LATITUDE":-32.757366,"LONGITUDE":148.92836,"STATE_NAME":"NSW"},{"NAME":"Balaclava","POSTCODE":2575,"LATITUDE":-34.439705,"LONGITUDE":150.476639,"STATE_NAME":"NSW"},{"NAME":"Balala","POSTCODE":2358,"LATITUDE":-30.618547,"LONGITUDE":151.303482,"STATE_NAME":"NSW"},{"NAME":"Balarang","POSTCODE":2529,"LATITUDE":-32.870522,"LONGITUDE":151.651413,"STATE_NAME":"NSW"},{"NAME":"Balcolyn","POSTCODE":2264,"LATITUDE":-33.094765,"LONGITUDE":151.547852,"STATE_NAME":"NSW"},{"NAME":"Bald Blair","POSTCODE":2365,"LATITUDE":-30.170282,"LONGITUDE":151.805695,"STATE_NAME":"NSW"},{"NAME":"Bald Hills","POSTCODE":2549,"LATITUDE":-36.910278,"LONGITUDE":149.84462,"STATE_NAME":"NSW"},{"NAME":"Bald Nob","POSTCODE":2370,"LATITUDE":-29.645678,"LONGITUDE":151.975235,"STATE_NAME":"NSW"},{"NAME":"Bald Ridge","POSTCODE":2795,"LATITUDE":-33.937153,"LONGITUDE":149.422653,"STATE_NAME":"NSW"},{"NAME":"Baldersleigh","POSTCODE":2365,"LATITUDE":-30.229317,"LONGITUDE":151.486725,"STATE_NAME":"NSW"},{"NAME":"Baldry","POSTCODE":2867,"LATITUDE":-32.864403,"LONGITUDE":148.502167,"STATE_NAME":"NSW"},{"NAME":"Balfours Peak","POSTCODE":2402,"LATITUDE":-29.463634,"LONGITUDE":150.773865,"STATE_NAME":"NSW"},{"NAME":"Balgowlah","POSTCODE":2093,"LATITUDE":-33.79451,"LONGITUDE":151.265182,"STATE_NAME":"NSW"},{"NAME":"Balgowlah Heights","POSTCODE":2093,"LATITUDE":-33.807011,"LONGITUDE":151.262161,"STATE_NAME":"NSW"},{"NAME":"Balgownie","POSTCODE":2519,"LATITUDE":-34.38871,"LONGITUDE":150.878098,"STATE_NAME":"NSW"},{"NAME":"Balickera","POSTCODE":2324,"LATITUDE":-32.658909,"LONGITUDE":151.814163,"STATE_NAME":"NSW"},{"NAME":"Balladoran","POSTCODE":2831,"LATITUDE":-31.858696,"LONGITUDE":148.649139,"STATE_NAME":"NSW"},{"NAME":"Ballalaba","POSTCODE":2622,"LATITUDE":-35.64817,"LONGITUDE":149.614349,"STATE_NAME":"NSW"},{"NAME":"Balldale","POSTCODE":2646,"LATITUDE":-35.844685,"LONGITUDE":146.520493,"STATE_NAME":"NSW"},{"NAME":"Ballengarra","POSTCODE":2441,"LATITUDE":-31.316544,"LONGITUDE":152.71022,"STATE_NAME":"NSW"},{"NAME":"Ballimore","POSTCODE":2830,"LATITUDE":-32.196766,"LONGITUDE":148.900742,"STATE_NAME":"NSW"},{"NAME":"Ballina","POSTCODE":2478,"LATITUDE":-28.868483,"LONGITUDE":153.559998,"STATE_NAME":"NSW"},{"NAME":"Ballyroe","POSTCODE":2795,"LATITUDE":-34.057583,"LONGITUDE":149.572159,"STATE_NAME":"NSW"},{"NAME":"Balmain","POSTCODE":2041,"LATITUDE":-33.857552,"LONGITUDE":151.181046,"STATE_NAME":"NSW"},{"NAME":"Balmain East","POSTCODE":2041,"LATITUDE":-33.85751,"LONGITUDE":151.193542,"STATE_NAME":"NSW"},{"NAME":"Balmoral","POSTCODE":2088,"LATITUDE":-33.827557,"LONGITUDE":151.247406,"STATE_NAME":"NSW"},{"NAME":"Balmoral","POSTCODE":2283,"LATITUDE":-33.047344,"LONGITUDE":151.579849,"STATE_NAME":"NSW"},{"NAME":"Balmoral","POSTCODE":2571,"LATITUDE":-34.308323,"LONGITUDE":150.520309,"STATE_NAME":"NSW"},{"NAME":"Balranald","POSTCODE":2715,"LATITUDE":-34.639473,"LONGITUDE":143.562973,"STATE_NAME":"NSW"},{"NAME":"Bamarang","POSTCODE":2540,"LATITUDE":-34.900921,"LONGITUDE":150.519455,"STATE_NAME":"NSW"},{"NAME":"Banda Banda","POSTCODE":2446,"LATITUDE":-31.216173,"LONGITUDE":152.460281,"STATE_NAME":"NSW"},{"NAME":"Bandon","POSTCODE":2871,"LATITUDE":-33.597057,"LONGITUDE":148.253204,"STATE_NAME":"NSW"},{"NAME":"Bandon Grove","POSTCODE":2420,"LATITUDE":-32.300373,"LONGITUDE":151.716263,"STATE_NAME":"NSW"},{"NAME":"Bangadang","POSTCODE":2729,"LATITUDE":-35.277775,"LONGITUDE":147.960434,"STATE_NAME":"NSW"},{"NAME":"Bangadilly","POSTCODE":2577,"LATITUDE":-34.433605,"LONGITUDE":150.127792,"STATE_NAME":"NSW"},{"NAME":"Bangalee","POSTCODE":2541,"LATITUDE":-34.839046,"LONGITUDE":150.555008,"STATE_NAME":"NSW"},{"NAME":"Bangalow","POSTCODE":2479,"LATITUDE":-28.686529,"LONGITUDE":153.523895,"STATE_NAME":"NSW"},{"NAME":"Bangheet","POSTCODE":2404,"LATITUDE":-29.826387,"LONGITUDE":150.393799,"STATE_NAME":"NSW"},{"NAME":"Bango","POSTCODE":2582,"LATITUDE":-34.751991,"LONGITUDE":148.954849,"STATE_NAME":"NSW"},{"NAME":"Bangor","POSTCODE":2234,"LATITUDE":-34.017433,"LONGITUDE":151.030853,"STATE_NAME":"NSW"},{"NAME":"Banksia","POSTCODE":2216,"LATITUDE":-33.945831,"LONGITUDE":151.139664,"STATE_NAME":"NSW"},{"NAME":"Banksmeadow","POSTCODE":2019,"LATITUDE":-33.959961,"LONGITUDE":151.211044,"STATE_NAME":"NSW"},{"NAME":"Bankstown","POSTCODE":1885,"LATITUDE":-33.914543,"LONGITUDE":151.034302,"STATE_NAME":"NSW"},{"NAME":"Bankstown","POSTCODE":1888,"LATITUDE":-33.914543,"LONGITUDE":151.034302,"STATE_NAME":"NSW"},{"NAME":"Bankstown","POSTCODE":2200,"LATITUDE":-33.91729,"LONGITUDE":151.035889,"STATE_NAME":"NSW"},{"NAME":"Bankstown Aerodrome","POSTCODE":2200,"LATITUDE":-33.923103,"LONGITUDE":150.991837,"STATE_NAME":"NSW"},{"NAME":"Bankstown North","POSTCODE":2200,"LATITUDE":-33.91729,"LONGITUDE":151.035889,"STATE_NAME":"NSW"},{"NAME":"Bankstown Square","POSTCODE":2200,"LATITUDE":-33.915611,"LONGITUDE":151.037811,"STATE_NAME":"NSW"},{"NAME":"Bannaby","POSTCODE":2580,"LATITUDE":-34.441463,"LONGITUDE":149.995529,"STATE_NAME":"NSW"},{"NAME":"Bannister","POSTCODE":2580,"LATITUDE":-34.594299,"LONGITUDE":149.488281,"STATE_NAME":"NSW"},{"NAME":"Banoon","POSTCODE":2347,"LATITUDE":-30.532684,"LONGITUDE":150.418304,"STATE_NAME":"NSW"},{"NAME":"Banora Point","POSTCODE":2486,"LATITUDE":-28.218765,"LONGITUDE":153.474411,"STATE_NAME":"NSW"},{"NAME":"Banyabba","POSTCODE":2469,"LATITUDE":-29.347813,"LONGITUDE":153.014816,"STATE_NAME":"NSW"},{"NAME":"Bar Beach","POSTCODE":2300,"LATITUDE":-32.941132,"LONGITUDE":151.767395,"STATE_NAME":"NSW"},{"NAME":"Bar Point","POSTCODE":2083,"LATITUDE":-33.4757,"LONGITUDE":151.18927,"STATE_NAME":"NSW"},{"NAME":"Bara","POSTCODE":2850,"LATITUDE":-32.567135,"LONGITUDE":149.845276,"STATE_NAME":"NSW"},{"NAME":"Baradine","POSTCODE":2396,"LATITUDE":-30.949219,"LONGITUDE":149.066833,"STATE_NAME":"NSW"},{"NAME":"Barangaroo","POSTCODE":2000,"LATITUDE":-33.859982,"LONGITUDE":151.202133,"STATE_NAME":"NSW"},{"NAME":"Barbigal","POSTCODE":2830,"LATITUDE":-32.193592,"LONGITUDE":148.817963,"STATE_NAME":"NSW"},{"NAME":"Barcoongere","POSTCODE":2460,"LATITUDE":-29.907742,"LONGITUDE":153.211929,"STATE_NAME":"NSW"},{"NAME":"Barden Ridge","POSTCODE":2234,"LATITUDE":-34.033318,"LONGITUDE":151.005585,"STATE_NAME":"NSW"},{"NAME":"Bardia","POSTCODE":2565,"LATITUDE":-33.956509,"LONGITUDE":150.947662,"STATE_NAME":"NSW"},{"NAME":"Bardwell Park","POSTCODE":2207,"LATITUDE":-33.931904,"LONGITUDE":151.125366,"STATE_NAME":"NSW"},{"NAME":"Bardwell Valley","POSTCODE":2207,"LATITUDE":-33.933502,"LONGITUDE":151.137405,"STATE_NAME":"NSW"},{"NAME":"Barellan","POSTCODE":2665,"LATITUDE":-34.284756,"LONGITUDE":146.57222,"STATE_NAME":"NSW"},{"NAME":"Bargo","POSTCODE":2574,"LATITUDE":-34.294201,"LONGITUDE":150.581329,"STATE_NAME":"NSW"},{"NAME":"Barham","POSTCODE":2732,"LATITUDE":-35.630314,"LONGITUDE":144.128983,"STATE_NAME":"NSW"},{"NAME":"Barigan","POSTCODE":2850,"LATITUDE":-32.509647,"LONGITUDE":149.976105,"STATE_NAME":"NSW"},{"NAME":"Barkers Vale","POSTCODE":2474,"LATITUDE":-28.531223,"LONGITUDE":153.122437,"STATE_NAME":"NSW"},{"NAME":"Barmedman","POSTCODE":2668,"LATITUDE":-34.096645,"LONGITUDE":147.41748,"STATE_NAME":"NSW"},{"NAME":"Barneys Reef","POSTCODE":2852,"LATITUDE":-32.174026,"LONGITUDE":149.502838,"STATE_NAME":"NSW"},{"NAME":"Barnsley","POSTCODE":2278,"LATITUDE":-32.931465,"LONGITUDE":151.5867,"STATE_NAME":"NSW"},{"NAME":"Barooga","POSTCODE":3644,"LATITUDE":-35.912727,"LONGITUDE":145.689117,"STATE_NAME":"NSW"},{"NAME":"Barraba","POSTCODE":2347,"LATITUDE":-30.378592,"LONGITUDE":150.610519,"STATE_NAME":"NSW"},{"NAME":"Barrack Heights","POSTCODE":2528,"LATITUDE":-34.565521,"LONGITUDE":150.855591,"STATE_NAME":"NSW"},{"NAME":"Barrack Point","POSTCODE":2528,"LATITUDE":-34.563385,"LONGITUDE":150.867081,"STATE_NAME":"NSW"},{"NAME":"Barraganyatti","POSTCODE":2441,"LATITUDE":-30.873812,"LONGITUDE":152.91687,"STATE_NAME":"NSW"},{"NAME":"Barragga Bay","POSTCODE":2546,"LATITUDE":-36.50375,"LONGITUDE":150.052948,"STATE_NAME":"NSW"},{"NAME":"Barratta","POSTCODE":2710,"LATITUDE":-35.279427,"LONGITUDE":144.55571,"STATE_NAME":"NSW"},{"NAME":"Barren Grounds","POSTCODE":2577,"LATITUDE":-34.669487,"LONGITUDE":150.711182,"STATE_NAME":"NSW"},{"NAME":"Barrengarry","POSTCODE":2577,"LATITUDE":-34.720791,"LONGITUDE":150.523422,"STATE_NAME":"NSW"},{"NAME":"Barretts Creek","POSTCODE":2460,"LATITUDE":-29.370481,"LONGITUDE":152.752472,"STATE_NAME":"NSW"},{"NAME":"Barringella","POSTCODE":2540,"LATITUDE":-34.916656,"LONGITUDE":150.472443,"STATE_NAME":"NSW"},{"NAME":"Barrington","POSTCODE":2422,"LATITUDE":-31.973665,"LONGITUDE":151.909927,"STATE_NAME":"NSW"},{"NAME":"Barrington Tops","POSTCODE":2422,"LATITUDE":-31.922716,"LONGITUDE":151.536514,"STATE_NAME":"NSW"},{"NAME":"Barry","POSTCODE":2340,"LATITUDE":-31.578793,"LONGITUDE":151.2668,"STATE_NAME":"NSW"},{"NAME":"Barry","POSTCODE":2799,"LATITUDE":-33.646076,"LONGITUDE":149.266068,"STATE_NAME":"NSW"},{"NAME":"Barwon","POSTCODE":2396,"LATITUDE":-31.011625,"LONGITUDE":148.940399,"STATE_NAME":"NSW"},{"NAME":"Baryulgil","POSTCODE":2460,"LATITUDE":-29.220469,"LONGITUDE":152.604279,"STATE_NAME":"NSW"},{"NAME":"Basin View","POSTCODE":2540,"LATITUDE":-35.092064,"LONGITUDE":150.564758,"STATE_NAME":"NSW"},{"NAME":"Bass Hill","POSTCODE":2197,"LATITUDE":-33.899063,"LONGITUDE":150.99765,"STATE_NAME":"NSW"},{"NAME":"Bassendean","POSTCODE":2365,"LATITUDE":-30.055201,"LONGITUDE":151.181442,"STATE_NAME":"NSW"},{"NAME":"Batar Creek","POSTCODE":2439,"LATITUDE":-31.661037,"LONGITUDE":152.674789,"STATE_NAME":"NSW"},{"NAME":"Bateau Bay","POSTCODE":2261,"LATITUDE":-33.389091,"LONGITUDE":151.473328,"STATE_NAME":"NSW"},{"NAME":"Batehaven","POSTCODE":2536,"LATITUDE":-35.731312,"LONGITUDE":150.198425,"STATE_NAME":"NSW"},{"NAME":"Batemans Bay","POSTCODE":2536,"LATITUDE":-35.70842,"LONGITUDE":150.177612,"STATE_NAME":"NSW"},{"NAME":"Bathampton","POSTCODE":2795,"LATITUDE":-33.489651,"LONGITUDE":149.413635,"STATE_NAME":"NSW"},{"NAME":"Bathurst","POSTCODE":2795,"LATITUDE":-33.416668,"LONGITUDE":149.566666,"STATE_NAME":"NSW"},{"NAME":"Batlow","POSTCODE":2730,"LATITUDE":-35.519691,"LONGITUDE":148.145218,"STATE_NAME":"NSW"},{"NAME":"Baulkham Hills","POSTCODE":1755,"LATITUDE":-33.751881,"LONGITUDE":150.999649,"STATE_NAME":"NSW"},{"NAME":"Baulkham Hills","POSTCODE":2153,"LATITUDE":-33.760674,"LONGITUDE":150.993011,"STATE_NAME":"NSW"},{"NAME":"Baw Baw","POSTCODE":2580,"LATITUDE":-34.709148,"LONGITUDE":149.633392,"STATE_NAME":"NSW"},{"NAME":"Bawley Point","POSTCODE":2539,"LATITUDE":-35.518421,"LONGITUDE":150.39325,"STATE_NAME":"NSW"},{"NAME":"Baxters Ridge","POSTCODE":2422,"LATITUDE":-31.705305,"LONGITUDE":151.902512,"STATE_NAME":"NSW"},{"NAME":"Bay Village","POSTCODE":2261,"LATITUDE":-33.374844,"LONGITUDE":151.472549,"STATE_NAME":"NSW"},{"NAME":"Bayview","POSTCODE":2104,"LATITUDE":-33.661026,"LONGITUDE":151.28894,"STATE_NAME":"NSW"},{"NAME":"Beacon Hill","POSTCODE":2100,"LATITUDE":-33.753689,"LONGITUDE":151.26088,"STATE_NAME":"NSW"},{"NAME":"Beaconsfield","POSTCODE":2015,"LATITUDE":-33.912308,"LONGITUDE":151.200439,"STATE_NAME":"NSW"},{"NAME":"Bean Creek","POSTCODE":2469,"LATITUDE":-28.586298,"LONGITUDE":152.5811,"STATE_NAME":"NSW"},{"NAME":"Bearbong","POSTCODE":2827,"LATITUDE":-31.664022,"LONGITUDE":148.865677,"STATE_NAME":"NSW"},{"NAME":"Beaumont","POSTCODE":2577,"LATITUDE":-34.783035,"LONGITUDE":150.556824,"STATE_NAME":"NSW"},{"NAME":"Beaumont Hills","POSTCODE":2155,"LATITUDE":-33.702526,"LONGITUDE":150.940277,"STATE_NAME":"NSW"},{"NAME":"Beckom","POSTCODE":2665,"LATITUDE":-34.330612,"LONGITUDE":146.962769,"STATE_NAME":"NSW"},{"NAME":"Bective","POSTCODE":2340,"LATITUDE":-30.978203,"LONGITUDE":150.741409,"STATE_NAME":"NSW"},{"NAME":"Bectric","POSTCODE":2665,"LATITUDE":-34.51228,"LONGITUDE":147.259903,"STATE_NAME":"NSW"},{"NAME":"Bedgerebong","POSTCODE":2871,"LATITUDE":-33.355812,"LONGITUDE":147.701431,"STATE_NAME":"NSW"},{"NAME":"Beechwood","POSTCODE":2446,"LATITUDE":-31.436375,"LONGITUDE":152.681732,"STATE_NAME":"NSW"},{"NAME":"Beecroft","POSTCODE":2119,"LATITUDE":-33.749462,"LONGITUDE":151.065201,"STATE_NAME":"NSW"},{"NAME":"Beecroft Peninsula","POSTCODE":2540,"LATITUDE":-35.082596,"LONGITUDE":150.81337,"STATE_NAME":"NSW"},{"NAME":"Beelbangera","POSTCODE":2680,"LATITUDE":-34.256233,"LONGITUDE":146.100616,"STATE_NAME":"NSW"},{"NAME":"Beemunnel","POSTCODE":2824,"LATITUDE":-31.682575,"LONGITUDE":147.850754,"STATE_NAME":"NSW"},{"NAME":"Bega","POSTCODE":2550,"LATITUDE":-36.674229,"LONGITUDE":149.842926,"STATE_NAME":"NSW"},{"NAME":"Belanglo","POSTCODE":2577,"LATITUDE":-34.517288,"LONGITUDE":150.226318,"STATE_NAME":"NSW"},{"NAME":"Belbora","POSTCODE":2422,"LATITUDE":-32.003841,"LONGITUDE":152.157043,"STATE_NAME":"NSW"},{"NAME":"Belfield","POSTCODE":2191,"LATITUDE":-33.906113,"LONGITUDE":151.084991,"STATE_NAME":"NSW"},{"NAME":"Belford","POSTCODE":2335,"LATITUDE":-32.654858,"LONGITUDE":151.274887,"STATE_NAME":"NSW"},{"NAME":"Belfrayden","POSTCODE":2650,"LATITUDE":-35.116524,"LONGITUDE":147.05513,"STATE_NAME":"NSW"},{"NAME":"Belgravia","POSTCODE":2800,"LATITUDE":-33.109875,"LONGITUDE":149.024475,"STATE_NAME":"NSW"},{"NAME":"Belimbla Park","POSTCODE":2570,"LATITUDE":-34.075302,"LONGITUDE":150.53862,"STATE_NAME":"NSW"},{"NAME":"Bell","POSTCODE":2786,"LATITUDE":-33.509918,"LONGITUDE":150.279922,"STATE_NAME":"NSW"},{"NAME":"Bella Vista","POSTCODE":2153,"LATITUDE":-33.743938,"LONGITUDE":150.958939,"STATE_NAME":"NSW"},{"NAME":"Bellambi","POSTCODE":2518,"LATITUDE":-34.362232,"LONGITUDE":150.908112,"STATE_NAME":"NSW"},{"NAME":"Bellangry","POSTCODE":2446,"LATITUDE":-31.328768,"LONGITUDE":152.610184,"STATE_NAME":"NSW"},{"NAME":"Bellata","POSTCODE":2397,"LATITUDE":-29.918201,"LONGITUDE":149.791183,"STATE_NAME":"NSW"},{"NAME":"Bellawongarah","POSTCODE":2535,"LATITUDE":-34.756069,"LONGITUDE":150.620987,"STATE_NAME":"NSW"},{"NAME":"Bellbird","POSTCODE":2325,"LATITUDE":-32.856365,"LONGITUDE":151.323166,"STATE_NAME":"NSW"},{"NAME":"Bellbird Heights","POSTCODE":2325,"LATITUDE":-32.85014,"LONGITUDE":151.328339,"STATE_NAME":"NSW"},{"NAME":"Bellbrook","POSTCODE":2440,"LATITUDE":-30.818233,"LONGITUDE":152.50827,"STATE_NAME":"NSW"},{"NAME":"Bellevue Hill","POSTCODE":2023,"LATITUDE":-33.882694,"LONGITUDE":151.253967,"STATE_NAME":"NSW"},{"NAME":"Bellimbopinni","POSTCODE":2440,"LATITUDE":-31.002485,"LONGITUDE":152.910828,"STATE_NAME":"NSW"},{"NAME":"Bellingen","POSTCODE":2454,"LATITUDE":-30.452034,"LONGITUDE":152.896683,"STATE_NAME":"NSW"},{"NAME":"Bellmount Forest","POSTCODE":2581,"LATITUDE":-34.917976,"LONGITUDE":149.242676,"STATE_NAME":"NSW"},{"NAME":"Belltrees","POSTCODE":2337,"LATITUDE":-32.011147,"LONGITUDE":151.097931,"STATE_NAME":"NSW"},{"NAME":"Belmont","POSTCODE":2280,"LATITUDE":-33.035942,"LONGITUDE":151.660477,"STATE_NAME":"NSW"},{"NAME":"Belmont North","POSTCODE":2280,"LATITUDE":-33.020508,"LONGITUDE":151.667984,"STATE_NAME":"NSW"},{"NAME":"Belmont South","POSTCODE":2280,"LATITUDE":-33.04932,"LONGITUDE":151.655151,"STATE_NAME":"NSW"},{"NAME":"Belmore","POSTCODE":2192,"LATITUDE":-33.91782,"LONGITUDE":151.090805,"STATE_NAME":"NSW"},{"NAME":"Belmore River","POSTCODE":2440,"LATITUDE":-31.08367,"LONGITUDE":152.972839,"STATE_NAME":"NSW"},{"NAME":"Beloka","POSTCODE":2628,"LATITUDE":-36.561245,"LONGITUDE":148.704132,"STATE_NAME":"NSW"},{"NAME":"Belowra","POSTCODE":2545,"LATITUDE":-36.135422,"LONGITUDE":149.685638,"STATE_NAME":"NSW"},{"NAME":"Belrose","POSTCODE":2085,"LATITUDE":-33.739445,"LONGITUDE":151.209915,"STATE_NAME":"NSW"},{"NAME":"Belrose West","POSTCODE":2085,"LATITUDE":-33.729324,"LONGITUDE":151.204422,"STATE_NAME":"NSW"},{"NAME":"Bemboka","POSTCODE":2550,"LATITUDE":-36.627876,"LONGITUDE":149.569885,"STATE_NAME":"NSW"},{"NAME":"Ben Buckley","POSTCODE":2850,"LATITUDE":-32.483719,"LONGITUDE":149.271515,"STATE_NAME":"NSW"},{"NAME":"Ben Bullen","POSTCODE":2790,"LATITUDE":-33.219551,"LONGITUDE":150.02327,"STATE_NAME":"NSW"},{"NAME":"Ben Lomond","POSTCODE":2365,"LATITUDE":-30.020802,"LONGITUDE":151.660522,"STATE_NAME":"NSW"},{"NAME":"Benandarah","POSTCODE":2536,"LATITUDE":-35.649513,"LONGITUDE":150.235825,"STATE_NAME":"NSW"},{"NAME":"Bendalong","POSTCODE":2539,"LATITUDE":-35.246765,"LONGITUDE":150.529938,"STATE_NAME":"NSW"},{"NAME":"Bendemeer","POSTCODE":2355,"LATITUDE":-30.878525,"LONGITUDE":151.159912,"STATE_NAME":"NSW"},{"NAME":"Bendick Murrell","POSTCODE":2803,"LATITUDE":-34.168541,"LONGITUDE":148.456711,"STATE_NAME":"NSW"},{"NAME":"Bendolba","POSTCODE":2420,"LATITUDE":-32.326946,"LONGITUDE":151.726135,"STATE_NAME":"NSW"},{"NAME":"Bendoura","POSTCODE":2622,"LATITUDE":-35.555946,"LONGITUDE":149.643021,"STATE_NAME":"NSW"},{"NAME":"Benerembah","POSTCODE":2680,"LATITUDE":-34.289108,"LONGITUDE":145.902817,"STATE_NAME":"NSW"},{"NAME":"Bengalla","POSTCODE":2333,"LATITUDE":-32.283199,"LONGITUDE":150.824081,"STATE_NAME":"NSW"},{"NAME":"Beni","POSTCODE":2830,"LATITUDE":-32.193302,"LONGITUDE":148.751083,"STATE_NAME":"NSW"},{"NAME":"Bennetts Green","POSTCODE":2290,"LATITUDE":-32.994965,"LONGITUDE":151.687759,"STATE_NAME":"NSW"},{"NAME":"Bensville","POSTCODE":2251,"LATITUDE":-33.50021,"LONGITUDE":151.390579,"STATE_NAME":"NSW"},{"NAME":"Bentley","POSTCODE":2480,"LATITUDE":-28.785728,"LONGITUDE":153.124405,"STATE_NAME":"NSW"},{"NAME":"Berala","POSTCODE":2141,"LATITUDE":-33.871304,"LONGITUDE":151.032242,"STATE_NAME":"NSW"},{"NAME":"Berambing","POSTCODE":2758,"LATITUDE":-33.53281,"LONGITUDE":150.44548,"STATE_NAME":"NSW"},{"NAME":"Beresfield","POSTCODE":2322,"LATITUDE":-32.800644,"LONGITUDE":151.657928,"STATE_NAME":"NSW"},{"NAME":"Bergalia","POSTCODE":2537,"LATITUDE":-35.983078,"LONGITUDE":150.09845,"STATE_NAME":"NSW"},{"NAME":"Berkeley","POSTCODE":2506,"LATITUDE":-34.47937,"LONGITUDE":150.840591,"STATE_NAME":"NSW"},{"NAME":"Berkeley Vale","POSTCODE":2261,"LATITUDE":-33.339275,"LONGITUDE":151.437744,"STATE_NAME":"NSW"},{"NAME":"Berkshire Park","POSTCODE":2765,"LATITUDE":-33.663914,"LONGITUDE":150.799591,"STATE_NAME":"NSW"},{"NAME":"Berlang","POSTCODE":2622,"LATITUDE":-35.67522,"LONGITUDE":149.681259,"STATE_NAME":"NSW"},{"NAME":"Bermagui","POSTCODE":2546,"LATITUDE":-36.429253,"LONGITUDE":150.076035,"STATE_NAME":"NSW"},{"NAME":"Berowra","POSTCODE":2081,"LATITUDE":-33.623661,"LONGITUDE":151.151031,"STATE_NAME":"NSW"},{"NAME":"Berowra Creek","POSTCODE":2082,"LATITUDE":-33.598808,"LONGITUDE":151.134491,"STATE_NAME":"NSW"},{"NAME":"Berowra Heights","POSTCODE":2082,"LATITUDE":-33.598808,"LONGITUDE":151.134491,"STATE_NAME":"NSW"},{"NAME":"Berowra Waters","POSTCODE":2082,"LATITUDE":-33.600658,"LONGITUDE":151.12561,"STATE_NAME":"NSW"},{"NAME":"Berrambool","POSTCODE":2548,"LATITUDE":-36.879948,"LONGITUDE":149.909775,"STATE_NAME":"NSW"},{"NAME":"Berrara","POSTCODE":2540,"LATITUDE":-35.20507,"LONGITUDE":150.55368,"STATE_NAME":"NSW"},{"NAME":"Berremangra","POSTCODE":2582,"LATITUDE":-34.804661,"LONGITUDE":148.480423,"STATE_NAME":"NSW"},{"NAME":"Berrico","POSTCODE":2422,"LATITUDE":-32.06739,"LONGITUDE":151.830872,"STATE_NAME":"NSW"},{"NAME":"Berridale","POSTCODE":2628,"LATITUDE":-36.365547,"LONGITUDE":148.827393,"STATE_NAME":"NSW"},{"NAME":"Berrigal","POSTCODE":2390,"LATITUDE":-29.953474,"LONGITUDE":150.123245,"STATE_NAME":"NSW"},{"NAME":"Berrigan","POSTCODE":2712,"LATITUDE":-35.657207,"LONGITUDE":145.809387,"STATE_NAME":"NSW"},{"NAME":"Berrilee","POSTCODE":2159,"LATITUDE":-33.617142,"LONGITUDE":151.093277,"STATE_NAME":"NSW"},{"NAME":"Berrima","POSTCODE":2577,"LATITUDE":-34.487228,"LONGITUDE":150.337509,"STATE_NAME":"NSW"},{"NAME":"Berringer Lake","POSTCODE":2539,"LATITUDE":-35.253315,"LONGITUDE":150.500168,"STATE_NAME":"NSW"},{"NAME":"Berry","POSTCODE":2535,"LATITUDE":-34.775375,"LONGITUDE":150.69519,"STATE_NAME":"NSW"},{"NAME":"Berry Jerry","POSTCODE":2701,"LATITUDE":-34.711781,"LONGITUDE":147.255814,"STATE_NAME":"NSW"},{"NAME":"Berry Mountain","POSTCODE":2535,"LATITUDE":-34.75576,"LONGITUDE":150.638336,"STATE_NAME":"NSW"},{"NAME":"Berry Park","POSTCODE":2321,"LATITUDE":-32.761829,"LONGITUDE":151.660568,"STATE_NAME":"NSW"},{"NAME":"Berthong","POSTCODE":2594,"LATITUDE":-34.399551,"LONGITUDE":148.072662,"STATE_NAME":"NSW"},{"NAME":"Beryl","POSTCODE":2852,"LATITUDE":-32.311913,"LONGITUDE":149.457169,"STATE_NAME":"NSW"},{"NAME":"Bethungra","POSTCODE":2590,"LATITUDE":-34.761791,"LONGITUDE":147.85495,"STATE_NAME":"NSW"},{"NAME":"Bevendale","POSTCODE":2581,"LATITUDE":-34.53038,"LONGITUDE":149.117538,"STATE_NAME":"NSW"},{"NAME":"Beverley Park","POSTCODE":2217,"LATITUDE":-33.977047,"LONGITUDE":151.13652,"STATE_NAME":"NSW"},{"NAME":"Beverly Hills","POSTCODE":2209,"LATITUDE":-33.951012,"LONGITUDE":151.082367,"STATE_NAME":"NSW"},{"NAME":"Bewong","POSTCODE":2540,"LATITUDE":-35.085197,"LONGITUDE":150.533478,"STATE_NAME":"NSW"},{"NAME":"Bexhill","POSTCODE":2480,"LATITUDE":-28.762732,"LONGITUDE":153.346436,"STATE_NAME":"NSW"},{"NAME":"Bexley","POSTCODE":2207,"LATITUDE":-33.949287,"LONGITUDE":151.127136,"STATE_NAME":"NSW"},{"NAME":"Bexley North","POSTCODE":2207,"LATITUDE":-33.938488,"LONGITUDE":151.114136,"STATE_NAME":"NSW"},{"NAME":"Bexley South","POSTCODE":2207,"LATITUDE":-33.949287,"LONGITUDE":151.127136,"STATE_NAME":"NSW"},{"NAME":"Biala","POSTCODE":2581,"LATITUDE":-34.599533,"LONGITUDE":149.243668,"STATE_NAME":"NSW"},{"NAME":"Bibbenluke","POSTCODE":2632,"LATITUDE":-36.816181,"LONGITUDE":149.28302,"STATE_NAME":"NSW"},{"NAME":"Bickley Vale","POSTCODE":2570,"LATITUDE":-34.073059,"LONGITUDE":150.664932,"STATE_NAME":"NSW"},{"NAME":"Biddon","POSTCODE":2827,"LATITUDE":-31.56016,"LONGITUDE":148.805939,"STATE_NAME":"NSW"},{"NAME":"Bidgeemia","POSTCODE":2642,"LATITUDE":-35.453831,"LONGITUDE":146.521973,"STATE_NAME":"NSW"},{"NAME":"Bidwill","POSTCODE":2770,"LATITUDE":-33.732124,"LONGITUDE":150.82251,"STATE_NAME":"NSW"},{"NAME":"Bielsdown Hills","POSTCODE":2453,"LATITUDE":-30.373463,"LONGITUDE":152.673553,"STATE_NAME":"NSW"},{"NAME":"Big Hill","POSTCODE":2579,"LATITUDE":-34.553585,"LONGITUDE":149.97905,"STATE_NAME":"NSW"},{"NAME":"Big Jacks Creek","POSTCODE":2339,"LATITUDE":-31.759508,"LONGITUDE":150.617966,"STATE_NAME":"NSW"},{"NAME":"Big Ridge","POSTCODE":2330,"LATITUDE":-32.581921,"LONGITUDE":151.223892,"STATE_NAME":"NSW"},{"NAME":"Big Springs","POSTCODE":2650,"LATITUDE":-35.322716,"LONGITUDE":147.419617,"STATE_NAME":"NSW"},{"NAME":"Big Yengo","POSTCODE":2330,"LATITUDE":-32.946678,"LONGITUDE":150.975204,"STATE_NAME":"NSW"},{"NAME":"Bigga","POSTCODE":2583,"LATITUDE":-34.084972,"LONGITUDE":149.151154,"STATE_NAME":"NSW"},{"NAME":"Bilambil","POSTCODE":2486,"LATITUDE":-28.224665,"LONGITUDE":153.466537,"STATE_NAME":"NSW"},{"NAME":"Bilambil Heights","POSTCODE":2486,"LATITUDE":-28.215624,"LONGITUDE":153.484665,"STATE_NAME":"NSW"},{"NAME":"Bilbul","POSTCODE":2680,"LATITUDE":-34.273445,"LONGITUDE":146.138245,"STATE_NAME":"NSW"},{"NAME":"Bilgola","POSTCODE":2107,"LATITUDE":-33.646297,"LONGITUDE":151.313217,"STATE_NAME":"NSW"},{"NAME":"Billeroy","POSTCODE":2829,"LATITUDE":-30.649027,"LONGITUDE":148.472443,"STATE_NAME":"NSW"},{"NAME":"Billilingra","POSTCODE":2630,"LATITUDE":-36.023464,"LONGITUDE":149.119125,"STATE_NAME":"NSW"},{"NAME":"Billimari","POSTCODE":2804,"LATITUDE":-33.681091,"LONGITUDE":148.616043,"STATE_NAME":"NSW"},{"NAME":"Billinudgel","POSTCODE":2483,"LATITUDE":-28.499149,"LONGITUDE":153.519379,"STATE_NAME":"NSW"},{"NAME":"Billys Creek","POSTCODE":2453,"LATITUDE":-30.167349,"LONGITUDE":152.574036,"STATE_NAME":"NSW"},{"NAME":"Billywillinga","POSTCODE":2795,"LATITUDE":-33.328014,"LONGITUDE":149.450089,"STATE_NAME":"NSW"},{"NAME":"Bilpin","POSTCODE":2758,"LATITUDE":-33.498009,"LONGITUDE":150.521667,"STATE_NAME":"NSW"},{"NAME":"Bimberi","POSTCODE":2611,"LATITUDE":-35.564377,"LONGITUDE":148.696564,"STATE_NAME":"NSW"},{"NAME":"Bimbi","POSTCODE":2810,"LATITUDE":-34.038357,"LONGITUDE":147.930817,"STATE_NAME":"NSW"},{"NAME":"Bimbimbie","POSTCODE":2536,"LATITUDE":-35.85004,"LONGITUDE":150.113815,"STATE_NAME":"NSW"},{"NAME":"Binalong","POSTCODE":2584,"LATITUDE":-34.679668,"LONGITUDE":148.668716,"STATE_NAME":"NSW"},{"NAME":"Binda","POSTCODE":2583,"LATITUDE":-34.328918,"LONGITUDE":149.365234,"STATE_NAME":"NSW"},{"NAME":"Bindera","POSTCODE":2422,"LATITUDE":-32.02898,"LONGITUDE":151.825836,"STATE_NAME":"NSW"},{"NAME":"Bingara","POSTCODE":2404,"LATITUDE":-29.868282,"LONGITUDE":150.571609,"STATE_NAME":"NSW"},{"NAME":"Bingeebeebra Creek","POSTCODE":2469,"LATITUDE":-28.814508,"LONGITUDE":152.788528,"STATE_NAME":"NSW"},{"NAME":"Bingie","POSTCODE":2537,"LATITUDE":-36.010807,"LONGITUDE":150.148056,"STATE_NAME":"NSW"},{"NAME":"Bingleburra","POSTCODE":2311,"LATITUDE":-32.362972,"LONGITUDE":151.620377,"STATE_NAME":"NSW"},{"NAME":"Biniguy","POSTCODE":2399,"LATITUDE":-29.536154,"LONGITUDE":150.206924,"STATE_NAME":"NSW"},{"NAME":"Binjura","POSTCODE":2630,"LATITUDE":-36.174915,"LONGITUDE":149.108856,"STATE_NAME":"NSW"},{"NAME":"Binna Burra","POSTCODE":2479,"LATITUDE":-28.712248,"LONGITUDE":153.497757,"STATE_NAME":"NSW"},{"NAME":"Binnaway","POSTCODE":2395,"LATITUDE":-31.551876,"LONGITUDE":149.378738,"STATE_NAME":"NSW"},{"NAME":"Binya","POSTCODE":2665,"LATITUDE":-34.229073,"LONGITUDE":146.344543,"STATE_NAME":"NSW"},{"NAME":"Biraganbil","POSTCODE":2852,"LATITUDE":-32.397976,"LONGITUDE":149.395233,"STATE_NAME":"NSW"},{"NAME":"Birchgrove","POSTCODE":2041,"LATITUDE":-33.853008,"LONGITUDE":151.181427,"STATE_NAME":"NSW"},{"NAME":"Birdwood","POSTCODE":2446,"LATITUDE":-31.339455,"LONGITUDE":152.341034,"STATE_NAME":"NSW"},{"NAME":"Birganbigil","POSTCODE":2710,"LATITUDE":-35.511276,"LONGITUDE":145.192795,"STATE_NAME":"NSW"},{"NAME":"Birmingham Gardens","POSTCODE":2287,"LATITUDE":-32.890896,"LONGITUDE":151.69075,"STATE_NAME":"NSW"},{"NAME":"Birriwa","POSTCODE":2844,"LATITUDE":-32.120983,"LONGITUDE":149.466431,"STATE_NAME":"NSW"},{"NAME":"Birrong","POSTCODE":2143,"LATITUDE":-33.890625,"LONGITUDE":151.0224,"STATE_NAME":"NSW"},{"NAME":"Bishops Bridge","POSTCODE":2326,"LATITUDE":-32.742489,"LONGITUDE":151.47731,"STATE_NAME":"NSW"},{"NAME":"Bithramere","POSTCODE":2340,"LATITUDE":-31.117567,"LONGITUDE":150.769974,"STATE_NAME":"NSW"},{"NAME":"Black Creek","POSTCODE":2439,"LATITUDE":-31.580427,"LONGITUDE":152.6483,"STATE_NAME":"NSW"},{"NAME":"Black Creek","POSTCODE":2729,"LATITUDE":-35.306877,"LONGITUDE":148.022751,"STATE_NAME":"NSW"},{"NAME":"Black Head","POSTCODE":2430,"LATITUDE":-32.070065,"LONGITUDE":152.542389,"STATE_NAME":"NSW"},{"NAME":"Black Hill","POSTCODE":2322,"LATITUDE":-32.837643,"LONGITUDE":151.615555,"STATE_NAME":"NSW"},{"NAME":"Black Hollow","POSTCODE":2828,"LATITUDE":-31.11116,"LONGITUDE":148.859253,"STATE_NAME":"NSW"},{"NAME":"Black Mountain","POSTCODE":2365,"LATITUDE":-30.308867,"LONGITUDE":151.656769,"STATE_NAME":"NSW"},{"NAME":"Black Range","POSTCODE":2550,"LATITUDE":-36.715282,"LONGITUDE":149.83522,"STATE_NAME":"NSW"},{"NAME":"Black Springs","POSTCODE":2787,"LATITUDE":-33.847809,"LONGITUDE":149.74292,"STATE_NAME":"NSW"},{"NAME":"Blackalls Park","POSTCODE":2283,"LATITUDE":-33.001209,"LONGITUDE":151.585983,"STATE_NAME":"NSW"},{"NAME":"Blackbutt","POSTCODE":2529,"LATITUDE":-34.572552,"LONGITUDE":150.831451,"STATE_NAME":"NSW"},{"NAME":"Blackett","POSTCODE":2770,"LATITUDE":-33.737621,"LONGITUDE":150.816605,"STATE_NAME":"NSW"},{"NAME":"Blackheath","POSTCODE":2785,"LATITUDE":-33.635666,"LONGITUDE":150.285339,"STATE_NAME":"NSW"},{"NAME":"Blackmans Flat","POSTCODE":2790,"LATITUDE":-33.350594,"LONGITUDE":150.054276,"STATE_NAME":"NSW"},{"NAME":"Blackmans Point","POSTCODE":2444,"LATITUDE":-31.378515,"LONGITUDE":152.834503,"STATE_NAME":"NSW"},{"NAME":"Blacksmiths","POSTCODE":2281,"LATITUDE":-33.079136,"LONGITUDE":151.649948,"STATE_NAME":"NSW"},{"NAME":"Blacktown","POSTCODE":2148,"LATITUDE":-33.769463,"LONGITUDE":150.908493,"STATE_NAME":"NSW"},{"NAME":"Blacktown Westpoint","POSTCODE":2148,"LATITUDE":-33.77037,"LONGITUDE":150.90564,"STATE_NAME":"NSW"},{"NAME":"Blackville","POSTCODE":2343,"LATITUDE":-31.641928,"LONGITUDE":150.23584,"STATE_NAME":"NSW"},{"NAME":"Blackwall","POSTCODE":2256,"LATITUDE":-33.506054,"LONGITUDE":151.331512,"STATE_NAME":"NSW"},{"NAME":"Blair Athol","POSTCODE":2560,"LATITUDE":-34.063583,"LONGITUDE":150.806152,"STATE_NAME":"NSW"},{"NAME":"Blairmount","POSTCODE":2559,"LATITUDE":-34.04845,"LONGITUDE":150.803589,"STATE_NAME":"NSW"},{"NAME":"Blakebrook","POSTCODE":2480,"LATITUDE":-28.763542,"LONGITUDE":153.23111,"STATE_NAME":"NSW"},{"NAME":"Blakehurst","POSTCODE":2221,"LATITUDE":-33.989002,"LONGITUDE":151.112335,"STATE_NAME":"NSW"},{"NAME":"Blakney Creek","POSTCODE":2581,"LATITUDE":-34.644863,"LONGITUDE":149.030411,"STATE_NAME":"NSW"},{"NAME":"Bland","POSTCODE":2721,"LATITUDE":-34.02914,"LONGITUDE":147.638977,"STATE_NAME":"NSW"},{"NAME":"Blandford","POSTCODE":2338,"LATITUDE":-31.787321,"LONGITUDE":150.897598,"STATE_NAME":"NSW"},{"NAME":"Blaxcell","POSTCODE":2142,"LATITUDE":-33.849442,"LONGITUDE":151.00882,"STATE_NAME":"NSW"},{"NAME":"Blaxland","POSTCODE":2774,"LATITUDE":-33.745922,"LONGITUDE":150.612366,"STATE_NAME":"NSW"},{"NAME":"Blaxland East","POSTCODE":2774,"LATITUDE":-33.726669,"LONGITUDE":150.616898,"STATE_NAME":"NSW"},{"NAME":"Blaxlands Creek","POSTCODE":2460,"LATITUDE":-29.913437,"LONGITUDE":152.784546,"STATE_NAME":"NSW"},{"NAME":"Blaxlands Ridge","POSTCODE":2758,"LATITUDE":-33.500282,"LONGITUDE":150.738358,"STATE_NAME":"NSW"},{"NAME":"Blayney","POSTCODE":2799,"LATITUDE":-33.532257,"LONGITUDE":149.255295,"STATE_NAME":"NSW"},{"NAME":"Blenheim Road","POSTCODE":2113,"LATITUDE":-33.798782,"LONGITUDE":151.133713,"STATE_NAME":"NSW"},{"NAME":"Bligh Park","POSTCODE":2756,"LATITUDE":-33.634914,"LONGITUDE":150.789215,"STATE_NAME":"NSW"},{"NAME":"Blighty","POSTCODE":2713,"LATITUDE":-35.592087,"LONGITUDE":145.286942,"STATE_NAME":"NSW"},{"NAME":"Blowering","POSTCODE":2720,"LATITUDE":-35.510609,"LONGITUDE":148.269119,"STATE_NAME":"NSW"},{"NAME":"Blue Bay","POSTCODE":2261,"LATITUDE":-33.356731,"LONGITUDE":151.497833,"STATE_NAME":"NSW"},{"NAME":"Blue Haven","POSTCODE":2262,"LATITUDE":-33.208805,"LONGITUDE":151.510773,"STATE_NAME":"NSW"},{"NAME":"Blue Knob","POSTCODE":2480,"LATITUDE":-28.550709,"LONGITUDE":153.197067,"STATE_NAME":"NSW"},{"NAME":"Blue Nobby","POSTCODE":2408,"LATITUDE":-29.127401,"LONGITUDE":150.667084,"STATE_NAME":"NSW"},{"NAME":"Blue Vale","POSTCODE":2380,"LATITUDE":-30.837568,"LONGITUDE":150.222565,"STATE_NAME":"NSW"},{"NAME":"Blueys Beach","POSTCODE":2428,"LATITUDE":-32.34782,"LONGITUDE":152.535492,"STATE_NAME":"NSW"},{"NAME":"Boambee","POSTCODE":2450,"LATITUDE":-30.339867,"LONGITUDE":153.069016,"STATE_NAME":"NSW"},{"NAME":"Boambee East","POSTCODE":2452,"LATITUDE":-30.346661,"LONGITUDE":153.075333,"STATE_NAME":"NSW"},{"NAME":"Boambolo","POSTCODE":2582,"LATITUDE":-34.987728,"LONGITUDE":148.884842,"STATE_NAME":"NSW"},{"NAME":"Boat Harbour","POSTCODE":2316,"LATITUDE":-32.782616,"LONGITUDE":152.109131,"STATE_NAME":"NSW"},{"NAME":"Boat Harbour","POSTCODE":2480,"LATITUDE":-28.783442,"LONGITUDE":153.367599,"STATE_NAME":"NSW"},{"NAME":"Bobadah","POSTCODE":2825,"LATITUDE":-32.50856,"LONGITUDE":146.755188,"STATE_NAME":"NSW"},{"NAME":"Bobin","POSTCODE":2429,"LATITUDE":-31.710796,"LONGITUDE":152.282776,"STATE_NAME":"NSW"},{"NAME":"Bobs Creek","POSTCODE":2443,"LATITUDE":-31.591997,"LONGITUDE":152.750015,"STATE_NAME":"NSW"},{"NAME":"Bobs Farm","POSTCODE":2316,"LATITUDE":-32.766788,"LONGITUDE":152.013336,"STATE_NAME":"NSW"},{"NAME":"Bobundara","POSTCODE":2630,"LATITUDE":-36.485538,"LONGITUDE":148.992844,"STATE_NAME":"NSW"},{"NAME":"Boco","POSTCODE":2631,"LATITUDE":-36.598061,"LONGITUDE":149.137726,"STATE_NAME":"NSW"},{"NAME":"Bocoble","POSTCODE":2850,"LATITUDE":-32.790901,"LONGITUDE":149.718292,"STATE_NAME":"NSW"},{"NAME":"Bocobra","POSTCODE":2865,"LATITUDE":-33.085194,"LONGITUDE":148.537262,"STATE_NAME":"NSW"},{"NAME":"Bodalla","POSTCODE":2545,"LATITUDE":-36.088032,"LONGITUDE":150.050491,"STATE_NAME":"NSW"},{"NAME":"Bodangora","POSTCODE":2820,"LATITUDE":-32.454433,"LONGITUDE":148.997879,"STATE_NAME":"NSW"},{"NAME":"Boeill Creek","POSTCODE":2739,"LATITUDE":-34.143333,"LONGITUDE":142.119995,"STATE_NAME":"NSW"},{"NAME":"Bogan","POSTCODE":2825,"LATITUDE":-32.028957,"LONGITUDE":147.448135,"STATE_NAME":"NSW"},{"NAME":"Bogan","POSTCODE":2839,"LATITUDE":-30.176977,"LONGITUDE":146.512833,"STATE_NAME":"NSW"},{"NAME":"Bogan Gate","POSTCODE":2876,"LATITUDE":-33.107834,"LONGITUDE":147.803391,"STATE_NAME":"NSW"},{"NAME":"Bogangar","POSTCODE":2488,"LATITUDE":-28.334185,"LONGITUDE":153.5672,"STATE_NAME":"NSW"},{"NAME":"Bogee","POSTCODE":2849,"LATITUDE":-32.987171,"LONGITUDE":150.115326,"STATE_NAME":"NSW"},{"NAME":"Boggabilla","POSTCODE":2409,"LATITUDE":-28.60268,"LONGITUDE":150.360031,"STATE_NAME":"NSW"},{"NAME":"Boggabri","POSTCODE":2382,"LATITUDE":-30.70396,"LONGITUDE":150.044144,"STATE_NAME":"NSW"},{"NAME":"Bogong Peaks Wilderness","POSTCODE":2720,"LATITUDE":-35.517944,"LONGITUDE":148.385712,"STATE_NAME":"NSW"},{"NAME":"Bohena Creek","POSTCODE":2390,"LATITUDE":-30.425196,"LONGITUDE":149.637054,"STATE_NAME":"NSW"},{"NAME":"Bohnock","POSTCODE":2430,"LATITUDE":-31.947412,"LONGITUDE":152.5625,"STATE_NAME":"NSW"},{"NAME":"Bolaro","POSTCODE":2629,"LATITUDE":-35.917645,"LONGITUDE":148.846848,"STATE_NAME":"NSW"},{"NAME":"Bolivia","POSTCODE":2372,"LATITUDE":-29.30167,"LONGITUDE":151.954849,"STATE_NAME":"NSW"},{"NAME":"Bolong","POSTCODE":2540,"LATITUDE":-34.850727,"LONGITUDE":150.62529,"STATE_NAME":"NSW"},{"NAME":"Bolton Point","POSTCODE":2283,"LATITUDE":-33.001633,"LONGITUDE":151.608322,"STATE_NAME":"NSW"},{"NAME":"Bolwarra","POSTCODE":2320,"LATITUDE":-32.708012,"LONGITUDE":151.575134,"STATE_NAME":"NSW"},{"NAME":"Bolwarra Heights","POSTCODE":2320,"LATITUDE":-32.700508,"LONGITUDE":151.584839,"STATE_NAME":"NSW"},{"NAME":"Bom Bom","POSTCODE":2460,"LATITUDE":-29.732063,"LONGITUDE":152.964462,"STATE_NAME":"NSW"},{"NAME":"Bomaderry","POSTCODE":2541,"LATITUDE":-34.874626,"LONGITUDE":150.602905,"STATE_NAME":"NSW"},{"NAME":"Bombah Point","POSTCODE":2423,"LATITUDE":-32.500168,"LONGITUDE":152.271317,"STATE_NAME":"NSW"},{"NAME":"Bombala","POSTCODE":2632,"LATITUDE":-36.912262,"LONGITUDE":149.238235,"STATE_NAME":"NSW"},{"NAME":"Bombay","POSTCODE":2622,"LATITUDE":-35.437809,"LONGITUDE":149.671112,"STATE_NAME":"NSW"},{"NAME":"Bombira","POSTCODE":2850,"LATITUDE":-32.573795,"LONGITUDE":149.605194,"STATE_NAME":"NSW"},{"NAME":"Bombo","POSTCODE":2533,"LATITUDE":-34.658688,"LONGITUDE":150.853149,"STATE_NAME":"NSW"},{"NAME":"Bombowlee","POSTCODE":2720,"LATITUDE":-35.296345,"LONGITUDE":148.230591,"STATE_NAME":"NSW"},{"NAME":"Bombowlee Creek","POSTCODE":2720,"LATITUDE":-35.270065,"LONGITUDE":148.315781,"STATE_NAME":"NSW"},{"NAME":"Bomen","POSTCODE":2650,"LATITUDE":-35.072529,"LONGITUDE":147.40976,"STATE_NAME":"NSW"},{"NAME":"Bomera","POSTCODE":2357,"LATITUDE":-31.504602,"LONGITUDE":149.7789,"STATE_NAME":"NSW"},{"NAME":"Bonalbo","POSTCODE":2469,"LATITUDE":-28.736435,"LONGITUDE":152.622833,"STATE_NAME":"NSW"},{"NAME":"Bondi","POSTCODE":2026,"LATITUDE":-33.89381,"LONGITUDE":151.263077,"STATE_NAME":"NSW"},{"NAME":"Bondi Beach","POSTCODE":2026,"LATITUDE":-33.890842,"LONGITUDE":151.274292,"STATE_NAME":"NSW"},{"NAME":"Bondi Forest","POSTCODE":2632,"LATITUDE":-37.158573,"LONGITUDE":149.182465,"STATE_NAME":"NSW"},{"NAME":"Bondi Junction","POSTCODE":1355,"LATITUDE":-33.892178,"LONGITUDE":151.250793,"STATE_NAME":"NSW"},{"NAME":"Bondi Junction","POSTCODE":2022,"LATITUDE":-33.892788,"LONGITUDE":151.247223,"STATE_NAME":"NSW"},{"NAME":"Bondi Junction Plaza","POSTCODE":2022,"LATITUDE":-33.891125,"LONGITUDE":151.247223,"STATE_NAME":"NSW"},{"NAME":"Bonnells Bay","POSTCODE":2264,"LATITUDE":-33.100925,"LONGITUDE":151.517944,"STATE_NAME":"NSW"},{"NAME":"Bonnet Bay","POSTCODE":2226,"LATITUDE":-34.009239,"LONGITUDE":151.056335,"STATE_NAME":"NSW"},{"NAME":"Bonny Hills","POSTCODE":2445,"LATITUDE":-31.580612,"LONGITUDE":152.82991,"STATE_NAME":"NSW"},{"NAME":"Bonnyrigg","POSTCODE":2177,"LATITUDE":-33.888245,"LONGITUDE":150.8871,"STATE_NAME":"NSW"},{"NAME":"Bonnyrigg Heights","POSTCODE":2177,"LATITUDE":-33.891361,"LONGITUDE":150.868622,"STATE_NAME":"NSW"},{"NAME":"Bonshaw","POSTCODE":2361,"LATITUDE":-29.048239,"LONGITUDE":151.277145,"STATE_NAME":"NSW"},{"NAME":"Bonville","POSTCODE":2441,"LATITUDE":-30.376169,"LONGITUDE":153.035248,"STATE_NAME":"NSW"},{"NAME":"Booerie Creek","POSTCODE":2480,"LATITUDE":-28.786108,"LONGITUDE":153.255661,"STATE_NAME":"NSW"},{"NAME":"Book Book","POSTCODE":2650,"LATITUDE":-35.369442,"LONGITUDE":147.563278,"STATE_NAME":"NSW"},{"NAME":"Booker Bay","POSTCODE":2257,"LATITUDE":-33.516006,"LONGITUDE":151.346573,"STATE_NAME":"NSW"},{"NAME":"Bookham","POSTCODE":2582,"LATITUDE":-34.813522,"LONGITUDE":148.640518,"STATE_NAME":"NSW"},{"NAME":"Bookookoorara","POSTCODE":2372,"LATITUDE":-28.781603,"LONGITUDE":152.086823,"STATE_NAME":"NSW"},{"NAME":"Bookram","POSTCODE":2460,"LATITUDE":-29.691233,"LONGITUDE":153.242889,"STATE_NAME":"NSW"},{"NAME":"Boolambayte","POSTCODE":2423,"LATITUDE":-32.403526,"LONGITUDE":152.278458,"STATE_NAME":"NSW"},{"NAME":"Boolaroo","POSTCODE":2284,"LATITUDE":-32.954849,"LONGITUDE":151.62236,"STATE_NAME":"NSW"},{"NAME":"Boolcarroll","POSTCODE":2388,"LATITUDE":-30.046202,"LONGITUDE":149.442535,"STATE_NAME":"NSW"},{"NAME":"Booligal","POSTCODE":2711,"LATITUDE":-33.869587,"LONGITUDE":144.884674,"STATE_NAME":"NSW"},{"NAME":"Boolijah","POSTCODE":2540,"LATITUDE":-35.05827,"LONGITUDE":150.335419,"STATE_NAME":"NSW"},{"NAME":"Boomanoomana","POSTCODE":2712,"LATITUDE":-35.96669,"LONGITUDE":145.843155,"STATE_NAME":"NSW"},{"NAME":"Boomerang Beach","POSTCODE":2428,"LATITUDE":-32.335896,"LONGITUDE":152.543961,"STATE_NAME":"NSW"},{"NAME":"Boomey","POSTCODE":2866,"LATITUDE":-32.988781,"LONGITUDE":148.994949,"STATE_NAME":"NSW"},{"NAME":"Boomi","POSTCODE":2405,"LATITUDE":-28.72131,"LONGITUDE":149.579895,"STATE_NAME":"NSW"},{"NAME":"Boomi Creek","POSTCODE":2476,"LATITUDE":-28.48386,"LONGITUDE":152.598099,"STATE_NAME":"NSW"},{"NAME":"Boona Mount","POSTCODE":2877,"LATITUDE":-32.629784,"LONGITUDE":147.204163,"STATE_NAME":"NSW"},{"NAME":"Boonal","POSTCODE":2409,"LATITUDE":-28.764565,"LONGITUDE":150.538635,"STATE_NAME":"NSW"},{"NAME":"Boonoo Boonoo","POSTCODE":2372,"LATITUDE":-28.884436,"LONGITUDE":152.10495,"STATE_NAME":"NSW"},{"NAME":"Boorabee Park","POSTCODE":2480,"LATITUDE":-28.715843,"LONGITUDE":153.073456,"STATE_NAME":"NSW"},{"NAME":"Booragul","POSTCODE":2284,"LATITUDE":-32.9743,"LONGITUDE":151.608749,"STATE_NAME":"NSW"},{"NAME":"Booral","POSTCODE":2425,"LATITUDE":-32.47538,"LONGITUDE":151.958527,"STATE_NAME":"NSW"},{"NAME":"Boorga","POSTCODE":2652,"LATITUDE":-34.030338,"LONGITUDE":146.021881,"STATE_NAME":"NSW"},{"NAME":"Boorganna","POSTCODE":2429,"LATITUDE":-31.629667,"LONGITUDE":152.400345,"STATE_NAME":"NSW"},{"NAME":"Boorolong","POSTCODE":2350,"LATITUDE":-30.320744,"LONGITUDE":151.533707,"STATE_NAME":"NSW"},{"NAME":"Boorook","POSTCODE":2372,"LATITUDE":-28.76433,"LONGITUDE":152.261566,"STATE_NAME":"NSW"},{"NAME":"Boorooma","POSTCODE":2650,"LATITUDE":-35.074081,"LONGITUDE":147.365448,"STATE_NAME":"NSW"},{"NAME":"Booroorban","POSTCODE":2710,"LATITUDE":-34.932312,"LONGITUDE":144.763199,"STATE_NAME":"NSW"},{"NAME":"Boorowa","POSTCODE":2586,"LATITUDE":-34.436554,"LONGITUDE":148.716812,"STATE_NAME":"NSW"},{"NAME":"Bootawa","POSTCODE":2430,"LATITUDE":-31.925112,"LONGITUDE":152.358917,"STATE_NAME":"NSW"},{"NAME":"Boothenba","POSTCODE":2830,"LATITUDE":-32.191681,"LONGITUDE":148.675095,"STATE_NAME":"NSW"},{"NAME":"Booti Booti","POSTCODE":2428,"LATITUDE":-32.310516,"LONGITUDE":152.516434,"STATE_NAME":"NSW"},{"NAME":"Booyong","POSTCODE":2480,"LATITUDE":-28.745153,"LONGITUDE":153.450699,"STATE_NAME":"NSW"},{"NAME":"Bora Ridge","POSTCODE":2471,"LATITUDE":-29.045132,"LONGITUDE":153.227997,"STATE_NAME":"NSW"},{"NAME":"Borah Creek","POSTCODE":2346,"LATITUDE":-30.61573,"LONGITUDE":150.524963,"STATE_NAME":"NSW"},{"NAME":"Borambil","POSTCODE":2343,"LATITUDE":-31.506397,"LONGITUDE":150.642212,"STATE_NAME":"NSW"},{"NAME":"Borambola","POSTCODE":2650,"LATITUDE":-35.167896,"LONGITUDE":147.61554,"STATE_NAME":"NSW"},{"NAME":"Border Ranges","POSTCODE":2474,"LATITUDE":-28.388609,"LONGITUDE":153.063568,"STATE_NAME":"NSW"},{"NAME":"Boree","POSTCODE":2800,"LATITUDE":-33.232754,"LONGITUDE":148.841324,"STATE_NAME":"NSW"},{"NAME":"Boree Creek","POSTCODE":2652,"LATITUDE":-35.109581,"LONGITUDE":146.606995,"STATE_NAME":"NSW"},{"NAME":"Borenore","POSTCODE":2800,"LATITUDE":-33.246105,"LONGITUDE":148.971054,"STATE_NAME":"NSW"},{"NAME":"Boro","POSTCODE":2622,"LATITUDE":-35.143463,"LONGITUDE":149.661667,"STATE_NAME":"NSW"},{"NAME":"Boronia Park","POSTCODE":2111,"LATITUDE":-33.824741,"LONGITUDE":151.141769,"STATE_NAME":"NSW"},{"NAME":"Bossley Park","POSTCODE":2176,"LATITUDE":-33.857319,"LONGITUDE":150.891525,"STATE_NAME":"NSW"},{"NAME":"Bostobrick","POSTCODE":2453,"LATITUDE":-30.273973,"LONGITUDE":152.62851,"STATE_NAME":"NSW"},{"NAME":"Botany","POSTCODE":1455,"LATITUDE":-34.007397,"LONGITUDE":151.220154,"STATE_NAME":"NSW"},{"NAME":"Botany","POSTCODE":2019,"LATITUDE":-33.944386,"LONGITUDE":151.196289,"STATE_NAME":"NSW"},{"NAME":"Botobolar","POSTCODE":2850,"LATITUDE":-32.528389,"LONGITUDE":149.845703,"STATE_NAME":"NSW"},{"NAME":"Bottle Creek","POSTCODE":2469,"LATITUDE":-28.788216,"LONGITUDE":152.651184,"STATE_NAME":"NSW"},{"NAME":"Bouddi","POSTCODE":2251,"LATITUDE":-33.517582,"LONGITUDE":151.385117,"STATE_NAME":"NSW"},{"NAME":"Bourbah","POSTCODE":2828,"LATITUDE":-31.235226,"LONGITUDE":148.170364,"STATE_NAME":"NSW"},{"NAME":"Bourke","POSTCODE":2840,"LATITUDE":-30.090109,"LONGITUDE":145.937546,"STATE_NAME":"NSW"},{"NAME":"Bourkelands","POSTCODE":2650,"LATITUDE":-35.153088,"LONGITUDE":147.345032,"STATE_NAME":"NSW"},{"NAME":"Bournda","POSTCODE":2548,"LATITUDE":-36.879032,"LONGITUDE":149.893036,"STATE_NAME":"NSW"},{"NAME":"Bournewood","POSTCODE":2868,"LATITUDE":-32.751663,"LONGITUDE":148.754761,"STATE_NAME":"NSW"},{"NAME":"Bow Bowing","POSTCODE":2566,"LATITUDE":-34.020691,"LONGITUDE":150.838181,"STATE_NAME":"NSW"},{"NAME":"Bowan Park","POSTCODE":2864,"LATITUDE":-33.312149,"LONGITUDE":148.827637,"STATE_NAME":"NSW"},{"NAME":"Bowen Mountain","POSTCODE":2753,"LATITUDE":-33.573669,"LONGITUDE":150.627991,"STATE_NAME":"NSW"},{"NAME":"Bowenfels","POSTCODE":2790,"LATITUDE":-33.486225,"LONGITUDE":150.131744,"STATE_NAME":"NSW"},{"NAME":"Bowling Alley Point","POSTCODE":2340,"LATITUDE":-31.395824,"LONGITUDE":151.139618,"STATE_NAME":"NSW"},{"NAME":"Bowman","POSTCODE":2422,"LATITUDE":-31.934074,"LONGITUDE":151.821609,"STATE_NAME":"NSW"},{"NAME":"Bowman Farm","POSTCODE":2422,"LATITUDE":-31.9097,"LONGITUDE":151.93158,"STATE_NAME":"NSW"},{"NAME":"Bowmans Creek","POSTCODE":2330,"LATITUDE":-32.270596,"LONGITUDE":151.15329,"STATE_NAME":"NSW"},{"NAME":"Bowna","POSTCODE":2644,"LATITUDE":-35.948315,"LONGITUDE":147.116272,"STATE_NAME":"NSW"},{"NAME":"Bowning","POSTCODE":2582,"LATITUDE":-34.768547,"LONGITUDE":148.818497,"STATE_NAME":"NSW"},{"NAME":"Bowral","POSTCODE":2576,"LATITUDE":-34.479156,"LONGITUDE":150.417801,"STATE_NAME":"NSW"},{"NAME":"Bowraville","POSTCODE":2449,"LATITUDE":-30.644699,"LONGITUDE":152.853149,"STATE_NAME":"NSW"},{"NAME":"Box Head","POSTCODE":2257,"LATITUDE":-33.530922,"LONGITUDE":151.355316,"STATE_NAME":"NSW"},{"NAME":"Box Hill","POSTCODE":2765,"LATITUDE":-33.665359,"LONGITUDE":150.902466,"STATE_NAME":"NSW"},{"NAME":"Box Ridge","POSTCODE":2357,"LATITUDE":-31.461065,"LONGITUDE":149.581223,"STATE_NAME":"NSW"},{"NAME":"Boxers Creek","POSTCODE":2580,"LATITUDE":-34.772793,"LONGITUDE":149.829529,"STATE_NAME":"NSW"},{"NAME":"Boydtown","POSTCODE":2551,"LATITUDE":-37.10574,"LONGITUDE":149.871719,"STATE_NAME":"NSW"},{"NAME":"Bradbury","POSTCODE":2560,"LATITUDE":-34.084866,"LONGITUDE":150.81218,"STATE_NAME":"NSW"},{"NAME":"Braefield","POSTCODE":2339,"LATITUDE":-31.569557,"LONGITUDE":150.700668,"STATE_NAME":"NSW"},{"NAME":"Braemar","POSTCODE":2575,"LATITUDE":-34.430477,"LONGITUDE":150.482864,"STATE_NAME":"NSW"},{"NAME":"Braemar Bay","POSTCODE":2628,"LATITUDE":-36.104206,"LONGITUDE":148.653076,"STATE_NAME":"NSW"},{"NAME":"Braidwood","POSTCODE":2622,"LATITUDE":-35.445995,"LONGITUDE":149.799042,"STATE_NAME":"NSW"},{"NAME":"Brandy Hill","POSTCODE":2324,"LATITUDE":-32.693348,"LONGITUDE":151.693954,"STATE_NAME":"NSW"},{"NAME":"Branxton","POSTCODE":2335,"LATITUDE":-32.655987,"LONGITUDE":151.351227,"STATE_NAME":"NSW"},{"NAME":"Braunstone","POSTCODE":2460,"LATITUDE":-29.802492,"LONGITUDE":152.959259,"STATE_NAME":"NSW"},{"NAME":"Brawboy","POSTCODE":2337,"LATITUDE":-31.966749,"LONGITUDE":150.6362,"STATE_NAME":"NSW"},{"NAME":"Bray Park","POSTCODE":2484,"LATITUDE":-28.340948,"LONGITUDE":153.374481,"STATE_NAME":"NSW"},{"NAME":"Brays Creek","POSTCODE":2484,"LATITUDE":-28.403748,"LONGITUDE":153.199112,"STATE_NAME":"NSW"},{"NAME":"Brayton","POSTCODE":2579,"LATITUDE":-34.647739,"LONGITUDE":149.964386,"STATE_NAME":"NSW"},{"NAME":"Breadalbane","POSTCODE":2581,"LATITUDE":-34.788822,"LONGITUDE":149.488525,"STATE_NAME":"NSW"},{"NAME":"Breakfast Creek","POSTCODE":2849,"LATITUDE":-32.669842,"LONGITUDE":149.99086,"STATE_NAME":"NSW"},{"NAME":"Breakfast Point","POSTCODE":2137,"LATITUDE":-33.841515,"LONGITUDE":151.108902,"STATE_NAME":"NSW"},{"NAME":"Bream Beach","POSTCODE":2540,"LATITUDE":-35.109524,"LONGITUDE":150.660538,"STATE_NAME":"NSW"},{"NAME":"Bredbo","POSTCODE":2626,"LATITUDE":-35.960838,"LONGITUDE":149.14946,"STATE_NAME":"NSW"},{"NAME":"Breelong","POSTCODE":2827,"LATITUDE":-31.810846,"LONGITUDE":148.794952,"STATE_NAME":"NSW"},{"NAME":"Breeza","POSTCODE":2381,"LATITUDE":-31.248346,"LONGITUDE":150.467255,"STATE_NAME":"NSW"},{"NAME":"Brenda","POSTCODE":2831,"LATITUDE":-29.113586,"LONGITUDE":147.45343,"STATE_NAME":"NSW"},{"NAME":"Bretti","POSTCODE":2422,"LATITUDE":-31.783445,"LONGITUDE":151.915924,"STATE_NAME":"NSW"},{"NAME":"Brewarrina","POSTCODE":2839,"LATITUDE":-29.962383,"LONGITUDE":146.861176,"STATE_NAME":"NSW"},{"NAME":"Brewongle","POSTCODE":2795,"LATITUDE":-33.47924,"LONGITUDE":149.715775,"STATE_NAME":"NSW"},{"NAME":"Briarbrook","POSTCODE":2365,"LATITUDE":-30.167446,"LONGITUDE":151.360123,"STATE_NAME":"NSW"},{"NAME":"Bribbaree","POSTCODE":2594,"LATITUDE":-34.120968,"LONGITUDE":147.88382,"STATE_NAME":"NSW"},{"NAME":"Bridgman","POSTCODE":2330,"LATITUDE":-32.453316,"LONGITUDE":151.185059,"STATE_NAME":"NSW"},{"NAME":"Brierfield","POSTCODE":2454,"LATITUDE":-30.498827,"LONGITUDE":152.895966,"STATE_NAME":"NSW"},{"NAME":"Brighton-le-sands","POSTCODE":2216,"LATITUDE":-33.96032,"LONGITUDE":151.154739,"STATE_NAME":"NSW"},{"NAME":"Brightwaters","POSTCODE":2264,"LATITUDE":-33.118378,"LONGITUDE":151.549881,"STATE_NAME":"NSW"},{"NAME":"Bril Bril","POSTCODE":2441,"LATITUDE":-31.275494,"LONGITUDE":152.577209,"STATE_NAME":"NSW"},{"NAME":"Brimbin","POSTCODE":2430,"LATITUDE":-31.869406,"LONGITUDE":152.490417,"STATE_NAME":"NSW"},{"NAME":"Brindabella","POSTCODE":2611,"LATITUDE":-35.385124,"LONGITUDE":148.747482,"STATE_NAME":"NSW"},{"NAME":"Brinerville","POSTCODE":2441,"LATITUDE":-30.476057,"LONGITUDE":152.549637,"STATE_NAME":"NSW"},{"NAME":"Bringelly","POSTCODE":2171,"LATITUDE":-33.950329,"LONGITUDE":150.831345,"STATE_NAME":"NSW"},{"NAME":"Bringelly","POSTCODE":2556,"LATITUDE":-33.940468,"LONGITUDE":150.733063,"STATE_NAME":"NSW"},{"NAME":"Bringenbrong","POSTCODE":3707,"LATITUDE":-36.150616,"LONGITUDE":148.0513,"STATE_NAME":"NSW"},{"NAME":"Brisbane Grove","POSTCODE":2580,"LATITUDE":-34.793404,"LONGITUDE":149.735977,"STATE_NAME":"NSW"},{"NAME":"Broadmeadow","POSTCODE":2292,"LATITUDE":-32.92363,"LONGITUDE":151.729019,"STATE_NAME":"NSW"},{"NAME":"Broadwater","POSTCODE":2472,"LATITUDE":-29.020138,"LONGITUDE":153.424103,"STATE_NAME":"NSW"},{"NAME":"Broadwater","POSTCODE":2549,"LATITUDE":-36.968826,"LONGITUDE":149.883331,"STATE_NAME":"NSW"},{"NAME":"Broadway","POSTCODE":1401,"LATITUDE":51.702549,"LONGITUDE":-3.044119,"STATE_NAME":"NSW"},{"NAME":"Broadway","POSTCODE":2007,"LATITUDE":-33.884251,"LONGITUDE":151.198563,"STATE_NAME":"NSW"},{"NAME":"Broadway","POSTCODE":2581,"LATITUDE":-34.721195,"LONGITUDE":149.093674,"STATE_NAME":"NSW"},{"NAME":"Brobenah","POSTCODE":2705,"LATITUDE":-34.513039,"LONGITUDE":146.41893,"STATE_NAME":"NSW"},{"NAME":"Brocklehurst","POSTCODE":2830,"LATITUDE":-32.178474,"LONGITUDE":148.622391,"STATE_NAME":"NSW"},{"NAME":"Brocklesby","POSTCODE":2642,"LATITUDE":-35.821377,"LONGITUDE":146.680573,"STATE_NAME":"NSW"},{"NAME":"Brockley","POSTCODE":2365,"LATITUDE":-30.259602,"LONGITUDE":151.861206,"STATE_NAME":"NSW"},{"NAME":"Brodies Plains","POSTCODE":2360,"LATITUDE":-29.808714,"LONGITUDE":151.19574,"STATE_NAME":"NSW"},{"NAME":"Brogans Creek","POSTCODE":2848,"LATITUDE":-32.989639,"LONGITUDE":149.967087,"STATE_NAME":"NSW"},{"NAME":"Brogers Creek","POSTCODE":2535,"LATITUDE":-34.700817,"LONGITUDE":150.687988,"STATE_NAME":"NSW"},{"NAME":"Brogo","POSTCODE":2550,"LATITUDE":-36.572636,"LONGITUDE":149.823853,"STATE_NAME":"NSW"},{"NAME":"Broke","POSTCODE":2330,"LATITUDE":-32.749348,"LONGITUDE":151.102524,"STATE_NAME":"NSW"},{"NAME":"Broken Head","POSTCODE":2481,"LATITUDE":-28.702824,"LONGITUDE":153.612549,"STATE_NAME":"NSW"},{"NAME":"Broken Hill","POSTCODE":2880,"LATITUDE":-31.955858,"LONGITUDE":141.465134,"STATE_NAME":"NSW"},{"NAME":"Broken Hill North","POSTCODE":2880,"LATITUDE":-31.955858,"LONGITUDE":141.465134,"STATE_NAME":"NSW"},{"NAME":"Broken Hill West","POSTCODE":2880,"LATITUDE":-31.955858,"LONGITUDE":141.465134,"STATE_NAME":"NSW"},{"NAME":"Brombin","POSTCODE":2446,"LATITUDE":-31.451033,"LONGITUDE":152.642654,"STATE_NAME":"NSW"},{"NAME":"Bronte","POSTCODE":2024,"LATITUDE":-33.906025,"LONGITUDE":151.263626,"STATE_NAME":"NSW"},{"NAME":"Brookdale","POSTCODE":2656,"LATITUDE":-35.161579,"LONGITUDE":146.93132,"STATE_NAME":"NSW"},{"NAME":"Brookfield","POSTCODE":2420,"LATITUDE":-32.503876,"LONGITUDE":151.762497,"STATE_NAME":"NSW"},{"NAME":"Brooklana","POSTCODE":2450,"LATITUDE":-30.296234,"LONGITUDE":152.891739,"STATE_NAME":"NSW"},{"NAME":"Brooklet","POSTCODE":2479,"LATITUDE":-28.739309,"LONGITUDE":153.503052,"STATE_NAME":"NSW"},{"NAME":"Brooklyn","POSTCODE":2083,"LATITUDE":-33.548481,"LONGITUDE":151.226166,"STATE_NAME":"NSW"},{"NAME":"Brookong","POSTCODE":2656,"LATITUDE":-35.283318,"LONGITUDE":146.549683,"STATE_NAME":"NSW"},{"NAME":"Brookvale","POSTCODE":2100,"LATITUDE":-33.76239,"LONGITUDE":151.271271,"STATE_NAME":"NSW"},{"NAME":"Brooman","POSTCODE":2538,"LATITUDE":-35.499332,"LONGITUDE":150.260681,"STATE_NAME":"NSW"},{"NAME":"Brooms Head","POSTCODE":2463,"LATITUDE":-29.608229,"LONGITUDE":153.335815,"STATE_NAME":"NSW"},{"NAME":"Broughams Gate","POSTCODE":2880,"LATITUDE":-30.910532,"LONGITUDE":141.295761,"STATE_NAME":"NSW"},{"NAME":"Broughton","POSTCODE":2535,"LATITUDE":-34.745544,"LONGITUDE":150.710281,"STATE_NAME":"NSW"},{"NAME":"Broughton Vale","POSTCODE":2535,"LATITUDE":-34.765198,"LONGITUDE":150.703979,"STATE_NAME":"NSW"},{"NAME":"Broughton Village","POSTCODE":2534,"LATITUDE":-34.741859,"LONGITUDE":150.750488,"STATE_NAME":"NSW"},{"NAME":"Broulee","POSTCODE":2537,"LATITUDE":-35.855,"LONGITUDE":150.174637,"STATE_NAME":"NSW"},{"NAME":"Brownlow Hill","POSTCODE":2570,"LATITUDE":-34.023716,"LONGITUDE":150.656525,"STATE_NAME":"NSW"},{"NAME":"Browns Creek","POSTCODE":2799,"LATITUDE":-33.524948,"LONGITUDE":149.154175,"STATE_NAME":"NSW"},{"NAME":"Browns Mountain","POSTCODE":2540,"LATITUDE":-34.799751,"LONGITUDE":150.514282,"STATE_NAME":"NSW"},{"NAME":"Brownsville","POSTCODE":2530,"LATITUDE":-34.48558,"LONGITUDE":150.806183,"STATE_NAME":"NSW"},{"NAME":"Bruah","POSTCODE":2830,"LATITUDE":-32.160892,"LONGITUDE":148.771896,"STATE_NAME":"NSW"},{"NAME":"Brucedale","POSTCODE":2650,"LATITUDE":-35.043385,"LONGITUDE":147.412369,"STATE_NAME":"NSW"},{"NAME":"Bruie Plains","POSTCODE":2875,"LATITUDE":-32.818478,"LONGITUDE":147.865051,"STATE_NAME":"NSW"},{"NAME":"Bruinbun","POSTCODE":2795,"LATITUDE":-33.144421,"LONGITUDE":149.45755,"STATE_NAME":"NSW"},{"NAME":"Brumby Plains","POSTCODE":2476,"LATITUDE":-28.463024,"LONGITUDE":152.656784,"STATE_NAME":"NSW"},{"NAME":"Brundee","POSTCODE":2540,"LATITUDE":-34.889053,"LONGITUDE":150.657547,"STATE_NAME":"NSW"},{"NAME":"Brungle","POSTCODE":2722,"LATITUDE":-35.146095,"LONGITUDE":148.226883,"STATE_NAME":"NSW"},{"NAME":"Brungle Creek","POSTCODE":2722,"LATITUDE":-35.159039,"LONGITUDE":148.313004,"STATE_NAME":"NSW"},{"NAME":"Brunkerville","POSTCODE":2323,"LATITUDE":-32.942139,"LONGITUDE":151.481567,"STATE_NAME":"NSW"},{"NAME":"Brunswick Heads","POSTCODE":2483,"LATITUDE":-28.540529,"LONGITUDE":153.549484,"STATE_NAME":"NSW"},{"NAME":"Brushgrove","POSTCODE":2460,"LATITUDE":-29.565458,"LONGITUDE":153.083069,"STATE_NAME":"NSW"},{"NAME":"Brushy Creek","POSTCODE":2365,"LATITUDE":-30.162275,"LONGITUDE":151.479263,"STATE_NAME":"NSW"},{"NAME":"Buangla","POSTCODE":2540,"LATITUDE":-34.879787,"LONGITUDE":150.407852,"STATE_NAME":"NSW"},{"NAME":"Bucca","POSTCODE":2450,"LATITUDE":-30.206985,"LONGITUDE":153.092606,"STATE_NAME":"NSW"},{"NAME":"Bucca Wauka","POSTCODE":2429,"LATITUDE":-32.101952,"LONGITUDE":152.151993,"STATE_NAME":"NSW"},{"NAME":"Buccarumbi","POSTCODE":2460,"LATITUDE":-29.835743,"LONGITUDE":152.586151,"STATE_NAME":"NSW"},{"NAME":"Buchanan","POSTCODE":2323,"LATITUDE":-32.829945,"LONGITUDE":151.530746,"STATE_NAME":"NSW"},{"NAME":"Buckajo","POSTCODE":2550,"LATITUDE":-36.694733,"LONGITUDE":149.714462,"STATE_NAME":"NSW"},{"NAME":"Buckaroo","POSTCODE":2850,"LATITUDE":-32.549435,"LONGITUDE":149.638306,"STATE_NAME":"NSW"},{"NAME":"Buckenbowra","POSTCODE":2536,"LATITUDE":-35.65192,"LONGITUDE":149.989426,"STATE_NAME":"NSW"},{"NAME":"Buckenderra","POSTCODE":2630,"LATITUDE":-36.179558,"LONGITUDE":148.76355,"STATE_NAME":"NSW"},{"NAME":"Buckendoon","POSTCODE":2472,"LATITUDE":-29.044956,"LONGITUDE":153.336151,"STATE_NAME":"NSW"},{"NAME":"Bucketty","POSTCODE":2250,"LATITUDE":-33.109966,"LONGITUDE":151.135803,"STATE_NAME":"NSW"},{"NAME":"Buckra Bendinni","POSTCODE":2449,"LATITUDE":-30.648573,"LONGITUDE":152.696915,"STATE_NAME":"NSW"},{"NAME":"Budawang","POSTCODE":2622,"LATITUDE":-35.467754,"LONGITUDE":149.994827,"STATE_NAME":"NSW"},{"NAME":"Buddabadah","POSTCODE":2825,"LATITUDE":-31.967693,"LONGITUDE":147.171188,"STATE_NAME":"NSW"},{"NAME":"Budden","POSTCODE":2849,"LATITUDE":-32.518009,"LONGITUDE":150.060913,"STATE_NAME":"NSW"},{"NAME":"Budderoo","POSTCODE":2535,"LATITUDE":-34.682823,"LONGITUDE":150.658768,"STATE_NAME":"NSW"},{"NAME":"Buddong","POSTCODE":2720,"LATITUDE":-35.67263,"LONGITUDE":148.168015,"STATE_NAME":"NSW"},{"NAME":"Budgee Budgee","POSTCODE":2850,"LATITUDE":-32.52858,"LONGITUDE":149.655945,"STATE_NAME":"NSW"},{"NAME":"Budgewoi","POSTCODE":2262,"LATITUDE":-33.234379,"LONGITUDE":151.554947,"STATE_NAME":"NSW"},{"NAME":"Budgewoi Peninsula","POSTCODE":2262,"LATITUDE":-33.210312,"LONGITUDE":151.585968,"STATE_NAME":"NSW"},{"NAME":"Budgong","POSTCODE":2577,"LATITUDE":-34.810345,"LONGITUDE":150.468842,"STATE_NAME":"NSW"},{"NAME":"Buff Point","POSTCODE":2262,"LATITUDE":-33.222637,"LONGITUDE":151.530991,"STATE_NAME":"NSW"},{"NAME":"Bugaldie","POSTCODE":2357,"LATITUDE":-31.123358,"LONGITUDE":149.11055,"STATE_NAME":"NSW"},{"NAME":"Bukalong","POSTCODE":2632,"LATITUDE":-36.797745,"LONGITUDE":149.202942,"STATE_NAME":"NSW"},{"NAME":"Bukkulla","POSTCODE":2360,"LATITUDE":-29.501114,"LONGITUDE":151.127487,"STATE_NAME":"NSW"},{"NAME":"Bulahdelah","POSTCODE":2423,"LATITUDE":-32.412792,"LONGITUDE":152.207443,"STATE_NAME":"NSW"},{"NAME":"Bulee","POSTCODE":2622,"LATITUDE":-34.998451,"LONGITUDE":150.129562,"STATE_NAME":"NSW"},{"NAME":"Bulga","POSTCODE":2330,"LATITUDE":-32.652542,"LONGITUDE":151.020554,"STATE_NAME":"NSW"},{"NAME":"Bulga Forest","POSTCODE":2429,"LATITUDE":-31.613665,"LONGITUDE":152.191376,"STATE_NAME":"NSW"},{"NAME":"Bulgary","POSTCODE":2650,"LATITUDE":-35.026531,"LONGITUDE":146.950653,"STATE_NAME":"NSW"},{"NAME":"Bulla","POSTCODE":2835,"LATITUDE":-32.034489,"LONGITUDE":144.420883,"STATE_NAME":"NSW"},{"NAME":"Bulla Creek","POSTCODE":2594,"LATITUDE":-34.10894,"LONGITUDE":148.256088,"STATE_NAME":"NSW"},{"NAME":"Bullaburra","POSTCODE":2784,"LATITUDE":-33.72797,"LONGITUDE":150.416748,"STATE_NAME":"NSW"},{"NAME":"Bullagreen","POSTCODE":2824,"LATITUDE":-31.345413,"LONGITUDE":148.043549,"STATE_NAME":"NSW"},{"NAME":"Bullagreen","POSTCODE":2831,"LATITUDE":-31.345413,"LONGITUDE":148.043549,"STATE_NAME":"NSW"},{"NAME":"Bullarah","POSTCODE":2400,"LATITUDE":-29.397764,"LONGITUDE":149.142151,"STATE_NAME":"NSW"},{"NAME":"Bullatale","POSTCODE":2710,"LATITUDE":-35.785721,"LONGITUDE":145.135284,"STATE_NAME":"NSW"},{"NAME":"Bullawa Creek","POSTCODE":2390,"LATITUDE":-30.268326,"LONGITUDE":150.035706,"STATE_NAME":"NSW"},{"NAME":"Bulldog","POSTCODE":2469,"LATITUDE":-29.033369,"LONGITUDE":152.497086,"STATE_NAME":"NSW"},{"NAME":"Bulli","POSTCODE":2516,"LATITUDE":-34.333862,"LONGITUDE":150.913391,"STATE_NAME":"NSW"},{"NAME":"Bulliac","POSTCODE":2422,"LATITUDE":-31.916252,"LONGITUDE":152.037018,"STATE_NAME":"NSW"},{"NAME":"Bullio","POSTCODE":2575,"LATITUDE":-34.346134,"LONGITUDE":150.15213,"STATE_NAME":"NSW"},{"NAME":"Bulyeroi","POSTCODE":2387,"LATITUDE":-29.792761,"LONGITUDE":149.228958,"STATE_NAME":"NSW"},{"NAME":"Bumbaldry","POSTCODE":2794,"LATITUDE":-33.908581,"LONGITUDE":148.444122,"STATE_NAME":"NSW"},{"NAME":"Bumbalong","POSTCODE":2626,"LATITUDE":-35.854256,"LONGITUDE":149.099487,"STATE_NAME":"NSW"},{"NAME":"Bumberry","POSTCODE":2870,"LATITUDE":-33.162788,"LONGITUDE":148.524506,"STATE_NAME":"NSW"},{"NAME":"Bundabah","POSTCODE":2324,"LATITUDE":-32.663403,"LONGITUDE":152.064209,"STATE_NAME":"NSW"},{"NAME":"Bundaburrah","POSTCODE":2871,"LATITUDE":-33.47131,"LONGITUDE":147.876587,"STATE_NAME":"NSW"},{"NAME":"Bundagen","POSTCODE":2454,"LATITUDE":-30.421427,"LONGITUDE":153.058044,"STATE_NAME":"NSW"},{"NAME":"Bundanoon","POSTCODE":2578,"LATITUDE":-34.669926,"LONGITUDE":150.268982,"STATE_NAME":"NSW"},{"NAME":"Bundarra","POSTCODE":2359,"LATITUDE":-30.171827,"LONGITUDE":151.075745,"STATE_NAME":"NSW"},{"NAME":"Bundeena","POSTCODE":2230,"LATITUDE":-34.08392,"LONGITUDE":151.151581,"STATE_NAME":"NSW"},{"NAME":"Bundella","POSTCODE":2343,"LATITUDE":-31.568003,"LONGITUDE":149.98703,"STATE_NAME":"NSW"},{"NAME":"Bundemar","POSTCODE":2823,"LATITUDE":-31.7192,"LONGITUDE":148.15097,"STATE_NAME":"NSW"},{"NAME":"Bundewallah","POSTCODE":2535,"LATITUDE":-34.762104,"LONGITUDE":150.673477,"STATE_NAME":"NSW"},{"NAME":"Bundjalung","POSTCODE":2473,"LATITUDE":-29.155313,"LONGITUDE":153.413727,"STATE_NAME":"NSW"},{"NAME":"Bundook","POSTCODE":2422,"LATITUDE":-31.897705,"LONGITUDE":152.119171,"STATE_NAME":"NSW"},{"NAME":"Bundure","POSTCODE":2700,"LATITUDE":-35.148396,"LONGITUDE":145.96637,"STATE_NAME":"NSW"},{"NAME":"Bungaba","POSTCODE":2852,"LATITUDE":-32.181927,"LONGITUDE":149.653076,"STATE_NAME":"NSW"},{"NAME":"Bungabbee","POSTCODE":2480,"LATITUDE":-28.764116,"LONGITUDE":153.134659,"STATE_NAME":"NSW"},{"NAME":"Bungalora","POSTCODE":2486,"LATITUDE":-28.249271,"LONGITUDE":153.47879,"STATE_NAME":"NSW"},{"NAME":"Bungarby","POSTCODE":2630,"LATITUDE":-36.683193,"LONGITUDE":149.009232,"STATE_NAME":"NSW"},{"NAME":"Bungawalbin","POSTCODE":2469,"LATITUDE":-29.037741,"LONGITUDE":153.279404,"STATE_NAME":"NSW"},{"NAME":"Bungendore","POSTCODE":2621,"LATITUDE":-35.254128,"LONGITUDE":149.440323,"STATE_NAME":"NSW"},{"NAME":"Bunglegumbie","POSTCODE":2830,"LATITUDE":-32.188953,"LONGITUDE":148.577011,"STATE_NAME":"NSW"},{"NAME":"Bungonia","POSTCODE":2580,"LATITUDE":-34.853821,"LONGITUDE":149.943909,"STATE_NAME":"NSW"},{"NAME":"Bungowannah","POSTCODE":2640,"LATITUDE":-35.999187,"LONGITUDE":146.748322,"STATE_NAME":"NSW"},{"NAME":"Bungwahl","POSTCODE":2423,"LATITUDE":-32.386131,"LONGITUDE":152.445602,"STATE_NAME":"NSW"},{"NAME":"Bunnaloo","POSTCODE":2731,"LATITUDE":-35.788422,"LONGITUDE":144.594681,"STATE_NAME":"NSW"},{"NAME":"Bunnan","POSTCODE":2337,"LATITUDE":-32.039391,"LONGITUDE":150.589935,"STATE_NAME":"NSW"},{"NAME":"Bunyah","POSTCODE":2429,"LATITUDE":-32.16383,"LONGITUDE":152.218338,"STATE_NAME":"NSW"},{"NAME":"Bunyan","POSTCODE":2630,"LATITUDE":-36.169411,"LONGITUDE":149.153687,"STATE_NAME":"NSW"},{"NAME":"Burcher","POSTCODE":2671,"LATITUDE":-33.51543,"LONGITUDE":147.252457,"STATE_NAME":"NSW"},{"NAME":"Bureen","POSTCODE":2328,"LATITUDE":-32.463879,"LONGITUDE":150.722382,"STATE_NAME":"NSW"},{"NAME":"Burnt Bridge","POSTCODE":2440,"LATITUDE":-31.107912,"LONGITUDE":152.801605,"STATE_NAME":"NSW"},{"NAME":"Burnt Yards","POSTCODE":2792,"LATITUDE":-33.577812,"LONGITUDE":149.01738,"STATE_NAME":"NSW"},{"NAME":"Buronga","POSTCODE":2739,"LATITUDE":-33.999115,"LONGITUDE":142.446548,"STATE_NAME":"NSW"},{"NAME":"Burra","POSTCODE":2620,"LATITUDE":-35.62056,"LONGITUDE":149.225861,"STATE_NAME":"NSW"},{"NAME":"Burra","POSTCODE":2653,"LATITUDE":-35.812099,"LONGITUDE":148.079498,"STATE_NAME":"NSW"},{"NAME":"Burra Creek","POSTCODE":2722,"LATITUDE":-34.889965,"LONGITUDE":148.058792,"STATE_NAME":"NSW"},{"NAME":"Burrabadine","POSTCODE":2830,"LATITUDE":-32.209263,"LONGITUDE":148.525436,"STATE_NAME":"NSW"},{"NAME":"Burraboi","POSTCODE":2732,"LATITUDE":-35.391293,"LONGITUDE":144.319107,"STATE_NAME":"NSW"},{"NAME":"Burradoo","POSTCODE":2576,"LATITUDE":-34.4981,"LONGITUDE":150.407639,"STATE_NAME":"NSW"},{"NAME":"Burraga","POSTCODE":2795,"LATITUDE":-33.94796,"LONGITUDE":149.529892,"STATE_NAME":"NSW"},{"NAME":"Burragate","POSTCODE":2550,"LATITUDE":-37.009228,"LONGITUDE":149.621674,"STATE_NAME":"NSW"},{"NAME":"Burrandana","POSTCODE":2650,"LATITUDE":-35.418652,"LONGITUDE":147.35051,"STATE_NAME":"NSW"},{"NAME":"Burraneer","POSTCODE":2230,"LATITUDE":-34.05632,"LONGITUDE":151.139618,"STATE_NAME":"NSW"},{"NAME":"Burrangong","POSTCODE":2594,"LATITUDE":-34.298897,"LONGITUDE":148.240341,"STATE_NAME":"NSW"},{"NAME":"Burrapine","POSTCODE":2447,"LATITUDE":-30.725178,"LONGITUDE":152.653107,"STATE_NAME":"NSW"},{"NAME":"Burrawang","POSTCODE":2577,"LATITUDE":-34.593197,"LONGITUDE":150.51709,"STATE_NAME":"NSW"},{"NAME":"Burrell Creek","POSTCODE":2429,"LATITUDE":-31.951374,"LONGITUDE":152.298431,"STATE_NAME":"NSW"},{"NAME":"Burren Junction","POSTCODE":2386,"LATITUDE":-30.105297,"LONGITUDE":148.965683,"STATE_NAME":"NSW"},{"NAME":"Burrier","POSTCODE":2540,"LATITUDE":-34.86797,"LONGITUDE":150.448608,"STATE_NAME":"NSW"},{"NAME":"Burrill Lake","POSTCODE":2539,"LATITUDE":-35.388561,"LONGITUDE":150.444717,"STATE_NAME":"NSW"},{"NAME":"Burringbar","POSTCODE":2483,"LATITUDE":-28.432709,"LONGITUDE":153.471863,"STATE_NAME":"NSW"},{"NAME":"Burrinjuck","POSTCODE":2582,"LATITUDE":-35.000767,"LONGITUDE":148.59668,"STATE_NAME":"NSW"},{"NAME":"Burroway","POSTCODE":2821,"LATITUDE":-32.057709,"LONGITUDE":148.346054,"STATE_NAME":"NSW"},{"NAME":"Burrumbuttock","POSTCODE":2642,"LATITUDE":-35.83408,"LONGITUDE":146.804581,"STATE_NAME":"NSW"},{"NAME":"Burrundulla","POSTCODE":2850,"LATITUDE":-32.627281,"LONGITUDE":149.635941,"STATE_NAME":"NSW"},{"NAME":"Burwood","POSTCODE":1805,"LATITUDE":-33.877384,"LONGITUDE":151.102249,"STATE_NAME":"NSW"},{"NAME":"Burwood","POSTCODE":2134,"LATITUDE":-33.879913,"LONGITUDE":151.102463,"STATE_NAME":"NSW"},{"NAME":"Burwood Heights","POSTCODE":2136,"LATITUDE":-33.888618,"LONGITUDE":151.101776,"STATE_NAME":"NSW"},{"NAME":"Burwood North","POSTCODE":2134,"LATITUDE":-33.877556,"LONGITUDE":151.103699,"STATE_NAME":"NSW"},{"NAME":"Busby","POSTCODE":2168,"LATITUDE":-33.910667,"LONGITUDE":150.87677,"STATE_NAME":"NSW"},{"NAME":"Busbys Flat","POSTCODE":2469,"LATITUDE":-29.065659,"LONGITUDE":152.781555,"STATE_NAME":"NSW"},{"NAME":"Bushells Ridge","POSTCODE":2259,"LATITUDE":-33.209663,"LONGITUDE":151.473404,"STATE_NAME":"NSW"},{"NAME":"Butlers Falls","POSTCODE":2830,"LATITUDE":-32.295143,"LONGITUDE":148.636078,"STATE_NAME":"NSW"},{"NAME":"Buttaba","POSTCODE":2283,"LATITUDE":-33.052792,"LONGITUDE":151.580093,"STATE_NAME":"NSW"},{"NAME":"Buttai","POSTCODE":2323,"LATITUDE":-32.820065,"LONGITUDE":151.558624,"STATE_NAME":"NSW"},{"NAME":"Butterwick","POSTCODE":2321,"LATITUDE":-32.655445,"LONGITUDE":151.637939,"STATE_NAME":"NSW"},{"NAME":"Buxton","POSTCODE":2571,"LATITUDE":-34.253475,"LONGITUDE":150.534546,"STATE_NAME":"NSW"},{"NAME":"Byabarra","POSTCODE":2446,"LATITUDE":-31.523462,"LONGITUDE":152.545837,"STATE_NAME":"NSW"},{"NAME":"Byadbo Wilderness","POSTCODE":2628,"LATITUDE":-36.824863,"LONGITUDE":148.620193,"STATE_NAME":"NSW"},{"NAME":"Byangum","POSTCODE":2484,"LATITUDE":-28.355701,"LONGITUDE":153.361481,"STATE_NAME":"NSW"},{"NAME":"Bylong","POSTCODE":2849,"LATITUDE":-32.41357,"LONGITUDE":150.117706,"STATE_NAME":"NSW"},{"NAME":"Byng","POSTCODE":2800,"LATITUDE":-33.348072,"LONGITUDE":149.254944,"STATE_NAME":"NSW"},{"NAME":"Byrock","POSTCODE":2831,"LATITUDE":-30.661982,"LONGITUDE":146.403687,"STATE_NAME":"NSW"},{"NAME":"Byron Bay","POSTCODE":2481,"LATITUDE":-28.644161,"LONGITUDE":153.612381,"STATE_NAME":"NSW"},{"NAME":"Byrrill Creek","POSTCODE":2484,"LATITUDE":-28.439148,"LONGITUDE":153.217163,"STATE_NAME":"NSW"},{"NAME":"Bywong","POSTCODE":2621,"LATITUDE":-35.172802,"LONGITUDE":149.329712,"STATE_NAME":"NSW"},{"NAME":"Cabarita","POSTCODE":2137,"LATITUDE":-33.843803,"LONGITUDE":151.116653,"STATE_NAME":"NSW"},{"NAME":"Cabarita Beach","POSTCODE":2488,"LATITUDE":-28.329651,"LONGITUDE":153.569702,"STATE_NAME":"NSW"},{"NAME":"Cabbage Tree Island","POSTCODE":2430,"LATITUDE":-31.946035,"LONGITUDE":152.59108,"STATE_NAME":"NSW"},{"NAME":"Cabbage Tree Island","POSTCODE":2477,"LATITUDE":-28.979776,"LONGITUDE":153.456619,"STATE_NAME":"NSW"},{"NAME":"Cabramatta","POSTCODE":2166,"LATITUDE":-33.895168,"LONGITUDE":150.936523,"STATE_NAME":"NSW"},{"NAME":"Cabramatta West","POSTCODE":2166,"LATITUDE":-33.896481,"LONGITUDE":150.912125,"STATE_NAME":"NSW"},{"NAME":"Cabramurra","POSTCODE":2629,"LATITUDE":-35.936657,"LONGITUDE":148.380554,"STATE_NAME":"NSW"},{"NAME":"Cadgee","POSTCODE":2545,"LATITUDE":-36.153782,"LONGITUDE":149.890762,"STATE_NAME":"NSW"},{"NAME":"Cadia","POSTCODE":2800,"LATITUDE":-33.443829,"LONGITUDE":149.009781,"STATE_NAME":"NSW"},{"NAME":"Caerleon","POSTCODE":2850,"LATITUDE":-32.568394,"LONGITUDE":149.547211,"STATE_NAME":"NSW"},{"NAME":"Caffreys Flat","POSTCODE":2424,"LATITUDE":-31.791264,"LONGITUDE":152.066483,"STATE_NAME":"NSW"},{"NAME":"Cairncross","POSTCODE":2446,"LATITUDE":-31.343699,"LONGITUDE":152.681763,"STATE_NAME":"NSW"},{"NAME":"Calala","POSTCODE":2340,"LATITUDE":-31.128761,"LONGITUDE":150.944458,"STATE_NAME":"NSW"},{"NAME":"Calamia","POSTCODE":2460,"LATITUDE":-29.842838,"LONGITUDE":153.097641,"STATE_NAME":"NSW"},{"NAME":"Calarie","POSTCODE":2871,"LATITUDE":-33.305862,"LONGITUDE":148.006119,"STATE_NAME":"NSW"},{"NAME":"Calderwood","POSTCODE":2527,"LATITUDE":-34.549816,"LONGITUDE":150.710953,"STATE_NAME":"NSW"},{"NAME":"Caldwell","POSTCODE":2710,"LATITUDE":-35.630024,"LONGITUDE":144.50441,"STATE_NAME":"NSW"},{"NAME":"Calga","POSTCODE":2250,"LATITUDE":-33.431961,"LONGITUDE":151.227142,"STATE_NAME":"NSW"},{"NAME":"Califat","POSTCODE":2729,"LATITUDE":-35.230572,"LONGITUDE":148.087677,"STATE_NAME":"NSW"},{"NAME":"Calimo","POSTCODE":2710,"LATITUDE":-35.42244,"LONGITUDE":144.593002,"STATE_NAME":"NSW"},{"NAME":"Callaghan","POSTCODE":2308,"LATITUDE":-32.893036,"LONGITUDE":151.703491,"STATE_NAME":"NSW"},{"NAME":"Callaghans Creek","POSTCODE":2422,"LATITUDE":-31.846704,"LONGITUDE":152.032608,"STATE_NAME":"NSW"},{"NAME":"Callala Bay","POSTCODE":2540,"LATITUDE":-34.997105,"LONGITUDE":150.722641,"STATE_NAME":"NSW"},{"NAME":"Callala Beach","POSTCODE":2540,"LATITUDE":-35.006992,"LONGITUDE":150.70433,"STATE_NAME":"NSW"},{"NAME":"Calliope","POSTCODE":2462,"LATITUDE":-29.612274,"LONGITUDE":153.072708,"STATE_NAME":"NSW"},{"NAME":"Caloola","POSTCODE":2795,"LATITUDE":-33.609062,"LONGITUDE":149.435516,"STATE_NAME":"NSW"},{"NAME":"Cambalong","POSTCODE":2632,"LATITUDE":-36.871582,"LONGITUDE":149.112442,"STATE_NAME":"NSW"},{"NAME":"Camberwell","POSTCODE":2330,"LATITUDE":-32.477379,"LONGITUDE":151.089722,"STATE_NAME":"NSW"},{"NAME":"Cambewarra","POSTCODE":2540,"LATITUDE":-34.823437,"LONGITUDE":150.563019,"STATE_NAME":"NSW"},{"NAME":"Cambewarra Village","POSTCODE":2540,"LATITUDE":-34.821354,"LONGITUDE":150.560165,"STATE_NAME":"NSW"},{"NAME":"Camboon","POSTCODE":2849,"LATITUDE":-32.703972,"LONGITUDE":149.960312,"STATE_NAME":"NSW"},{"NAME":"Cambra","POSTCODE":2420,"LATITUDE":-32.447659,"LONGITUDE":151.865646,"STATE_NAME":"NSW"},{"NAME":"Cambridge Gardens","POSTCODE":2747,"LATITUDE":-33.741005,"LONGITUDE":150.716949,"STATE_NAME":"NSW"},{"NAME":"Cambridge Park","POSTCODE":2747,"LATITUDE":-33.747723,"LONGITUDE":150.721436,"STATE_NAME":"NSW"},{"NAME":"Cambridge Plateau","POSTCODE":2469,"LATITUDE":-28.808159,"LONGITUDE":152.733536,"STATE_NAME":"NSW"},{"NAME":"Camden","POSTCODE":2570,"LATITUDE":-34.054218,"LONGITUDE":150.695602,"STATE_NAME":"NSW"},{"NAME":"Camden Head","POSTCODE":2443,"LATITUDE":-31.643469,"LONGITUDE":152.833847,"STATE_NAME":"NSW"},{"NAME":"Camden Park","POSTCODE":2570,"LATITUDE":-34.095711,"LONGITUDE":150.697464,"STATE_NAME":"NSW"},{"NAME":"Camden South","POSTCODE":2570,"LATITUDE":-34.082287,"LONGITUDE":150.695282,"STATE_NAME":"NSW"},{"NAME":"Camellia","POSTCODE":2142,"LATITUDE":-33.81992,"LONGITUDE":151.025146,"STATE_NAME":"NSW"},{"NAME":"Cameron Park","POSTCODE":2285,"LATITUDE":-32.899464,"LONGITUDE":151.590897,"STATE_NAME":"NSW"},{"NAME":"Camerons Creek","POSTCODE":2359,"LATITUDE":-30.397966,"LONGITUDE":151.113907,"STATE_NAME":"NSW"},{"NAME":"Camira","POSTCODE":2469,"LATITUDE":-29.217623,"LONGITUDE":152.932068,"STATE_NAME":"NSW"},{"NAME":"Cammeray","POSTCODE":2062,"LATITUDE":-33.822807,"LONGITUDE":151.214615,"STATE_NAME":"NSW"},{"NAME":"Camp Creek","POSTCODE":4385,"LATITUDE":-28.701771,"LONGITUDE":150.892349,"STATE_NAME":"NSW"},{"NAME":"Campbelltown","POSTCODE":2560,"LATITUDE":-34.067776,"LONGITUDE":150.813187,"STATE_NAME":"NSW"},{"NAME":"Campbelltown North","POSTCODE":2560,"LATITUDE":-34.067776,"LONGITUDE":150.813187,"STATE_NAME":"NSW"},{"NAME":"Camperdown","POSTCODE":1450,"LATITUDE":-33.893578,"LONGITUDE":151.18013,"STATE_NAME":"NSW"},{"NAME":"Camperdown","POSTCODE":2050,"LATITUDE":-33.88884,"LONGITUDE":151.182556,"STATE_NAME":"NSW"},{"NAME":"Campsie","POSTCODE":2194,"LATITUDE":-33.91058,"LONGITUDE":151.102463,"STATE_NAME":"NSW"},{"NAME":"Campvale","POSTCODE":2318,"LATITUDE":-32.772266,"LONGITUDE":151.858444,"STATE_NAME":"NSW"},{"NAME":"Cams Wharf","POSTCODE":2281,"LATITUDE":-33.126404,"LONGITUDE":151.615005,"STATE_NAME":"NSW"},{"NAME":"Canada Bay","POSTCODE":2046,"LATITUDE":-33.863972,"LONGITUDE":151.11763,"STATE_NAME":"NSW"},{"NAME":"Canadian Lead","POSTCODE":2850,"LATITUDE":-32.408264,"LONGITUDE":149.585815,"STATE_NAME":"NSW"},{"NAME":"Canbelego","POSTCODE":2835,"LATITUDE":-31.519638,"LONGITUDE":146.267929,"STATE_NAME":"NSW"},{"NAME":"Candelo","POSTCODE":2550,"LATITUDE":-36.765793,"LONGITUDE":149.693939,"STATE_NAME":"NSW"},{"NAME":"Cangai","POSTCODE":2460,"LATITUDE":-29.503407,"LONGITUDE":152.472824,"STATE_NAME":"NSW"},{"NAME":"Caniaba","POSTCODE":2480,"LATITUDE":-28.848049,"LONGITUDE":153.210159,"STATE_NAME":"NSW"},{"NAME":"Canley Heights","POSTCODE":2166,"LATITUDE":-33.883965,"LONGITUDE":150.925644,"STATE_NAME":"NSW"},{"NAME":"Canley Vale","POSTCODE":2166,"LATITUDE":-33.887192,"LONGITUDE":150.943375,"STATE_NAME":"NSW"},{"NAME":"Canobolas","POSTCODE":2800,"LATITUDE":-33.32634,"LONGITUDE":149.021667,"STATE_NAME":"NSW"},{"NAME":"Canoelands","POSTCODE":2157,"LATITUDE":-33.507748,"LONGITUDE":151.059906,"STATE_NAME":"NSW"},{"NAME":"Canonba","POSTCODE":2825,"LATITUDE":-31.313553,"LONGITUDE":147.39241,"STATE_NAME":"NSW"},{"NAME":"Canowindra","POSTCODE":2804,"LATITUDE":-33.565491,"LONGITUDE":148.660461,"STATE_NAME":"NSW"},{"NAME":"Canterbury","POSTCODE":2193,"LATITUDE":-33.911697,"LONGITUDE":151.119995,"STATE_NAME":"NSW"},{"NAME":"Canton Beach","POSTCODE":2263,"LATITUDE":-33.274746,"LONGITUDE":151.54718,"STATE_NAME":"NSW"},{"NAME":"Canyonleigh","POSTCODE":2577,"LATITUDE":-34.587803,"LONGITUDE":150.11705,"STATE_NAME":"NSW"},{"NAME":"Caparra","POSTCODE":2429,"LATITUDE":-31.72908,"LONGITUDE":152.24765,"STATE_NAME":"NSW"},{"NAME":"Capeen Creek","POSTCODE":2469,"LATITUDE":-28.549295,"LONGITUDE":152.648453,"STATE_NAME":"NSW"},{"NAME":"Capertee","POSTCODE":2846,"LATITUDE":-33.144993,"LONGITUDE":149.981445,"STATE_NAME":"NSW"},{"NAME":"Capoompeta","POSTCODE":2371,"LATITUDE":-29.397293,"LONGITUDE":152.044586,"STATE_NAME":"NSW"},{"NAME":"Captains Flat","POSTCODE":2623,"LATITUDE":-35.576588,"LONGITUDE":149.449066,"STATE_NAME":"NSW"},{"NAME":"Carabost","POSTCODE":2650,"LATITUDE":-35.600895,"LONGITUDE":147.728714,"STATE_NAME":"NSW"},{"NAME":"Caragabal","POSTCODE":2810,"LATITUDE":-33.84396,"LONGITUDE":147.740189,"STATE_NAME":"NSW"},{"NAME":"Carcalgong","POSTCODE":2850,"LATITUDE":-32.88044,"LONGITUDE":149.720657,"STATE_NAME":"NSW"},{"NAME":"Carcoar","POSTCODE":2791,"LATITUDE":-33.615543,"LONGITUDE":149.139755,"STATE_NAME":"NSW"},{"NAME":"Cardiff","POSTCODE":2285,"LATITUDE":-32.93964,"LONGITUDE":151.659073,"STATE_NAME":"NSW"},{"NAME":"Cardiff Heights","POSTCODE":2285,"LATITUDE":-32.93605,"LONGITUDE":151.672211,"STATE_NAME":"NSW"},{"NAME":"Cardiff South","POSTCODE":2285,"LATITUDE":-32.954102,"LONGITUDE":151.665009,"STATE_NAME":"NSW"},{"NAME":"Carey Bay","POSTCODE":2283,"LATITUDE":-33.02776,"LONGITUDE":151.607376,"STATE_NAME":"NSW"},{"NAME":"Cargo","POSTCODE":2800,"LATITUDE":-33.423138,"LONGITUDE":148.810013,"STATE_NAME":"NSW"},{"NAME":"Carinda","POSTCODE":2831,"LATITUDE":-30.463667,"LONGITUDE":147.694672,"STATE_NAME":"NSW"},{"NAME":"Caringbah","POSTCODE":1495,"LATITUDE":-34.03371,"LONGITUDE":151.120758,"STATE_NAME":"NSW"},{"NAME":"Caringbah","POSTCODE":2229,"LATITUDE":-34.041084,"LONGITUDE":151.122681,"STATE_NAME":"NSW"},{"NAME":"Caringbah South","POSTCODE":2229,"LATITUDE":-34.055145,"LONGITUDE":151.121353,"STATE_NAME":"NSW"},{"NAME":"Carlaminda","POSTCODE":2630,"LATITUDE":-36.351555,"LONGITUDE":149.329819,"STATE_NAME":"NSW"},{"NAME":"Carlingford","POSTCODE":2118,"LATITUDE":-33.76968,"LONGITUDE":151.041306,"STATE_NAME":"NSW"},{"NAME":"Carlingford Court","POSTCODE":2118,"LATITUDE":-33.777592,"LONGITUDE":151.052017,"STATE_NAME":"NSW"},{"NAME":"Carlingford North","POSTCODE":2118,"LATITUDE":-33.7831,"LONGITUDE":151.046814,"STATE_NAME":"NSW"},{"NAME":"Carlton","POSTCODE":2218,"LATITUDE":-33.96796,"LONGITUDE":151.123367,"STATE_NAME":"NSW"},{"NAME":"Carnes Hill","POSTCODE":2171,"LATITUDE":-33.937351,"LONGITUDE":150.845306,"STATE_NAME":"NSW"},{"NAME":"Carnham","POSTCODE":2460,"LATITUDE":-29.322708,"LONGITUDE":152.585266,"STATE_NAME":"NSW"},{"NAME":"Carool","POSTCODE":2486,"LATITUDE":-28.229612,"LONGITUDE":153.429016,"STATE_NAME":"NSW"},{"NAME":"Caroona","POSTCODE":2343,"LATITUDE":-31.406836,"LONGITUDE":150.425797,"STATE_NAME":"NSW"},{"NAME":"Carrabolla","POSTCODE":2311,"LATITUDE":-32.241379,"LONGITUDE":151.378876,"STATE_NAME":"NSW"},{"NAME":"Carrai","POSTCODE":2440,"LATITUDE":-30.833164,"LONGITUDE":152.248657,"STATE_NAME":"NSW"},{"NAME":"Carramar","POSTCODE":2163,"LATITUDE":-33.884739,"LONGITUDE":150.961304,"STATE_NAME":"NSW"},{"NAME":"Carrathool","POSTCODE":2711,"LATITUDE":-34.408047,"LONGITUDE":145.430511,"STATE_NAME":"NSW"},{"NAME":"Carrawabbity","POSTCODE":2871,"LATITUDE":-33.369022,"LONGITUDE":147.845871,"STATE_NAME":"NSW"},{"NAME":"Carrick","POSTCODE":2580,"LATITUDE":-34.711231,"LONGITUDE":149.898819,"STATE_NAME":"NSW"},{"NAME":"Carrington","POSTCODE":2294,"LATITUDE":-32.912788,"LONGITUDE":151.761597,"STATE_NAME":"NSW"},{"NAME":"Carrington","POSTCODE":2324,"LATITUDE":-32.666286,"LONGITUDE":152.015091,"STATE_NAME":"NSW"},{"NAME":"Carrington Falls","POSTCODE":2577,"LATITUDE":-34.646893,"LONGITUDE":150.646408,"STATE_NAME":"NSW"},{"NAME":"Carroll","POSTCODE":2340,"LATITUDE":-30.986111,"LONGITUDE":150.445404,"STATE_NAME":"NSW"},{"NAME":"Carrolls Creek","POSTCODE":2372,"LATITUDE":-28.82303,"LONGITUDE":152.104401,"STATE_NAME":"NSW"},{"NAME":"Carrowbrook","POSTCODE":2330,"LATITUDE":-32.276546,"LONGITUDE":151.30423,"STATE_NAME":"NSW"},{"NAME":"Carrs Creek","POSTCODE":2460,"LATITUDE":-29.662865,"LONGITUDE":152.937393,"STATE_NAME":"NSW"},{"NAME":"Carrs Island","POSTCODE":2460,"LATITUDE":-29.671549,"LONGITUDE":152.91423,"STATE_NAME":"NSW"},{"NAME":"Carrs Peninsular","POSTCODE":2460,"LATITUDE":-29.653364,"LONGITUDE":152.905823,"STATE_NAME":"NSW"},{"NAME":"Carss Park","POSTCODE":2221,"LATITUDE":-33.982105,"LONGITUDE":151.117462,"STATE_NAME":"NSW"},{"NAME":"Cartwright","POSTCODE":2168,"LATITUDE":-33.926331,"LONGITUDE":150.890427,"STATE_NAME":"NSW"},{"NAME":"Cartwrights Hill","POSTCODE":2650,"LATITUDE":-35.077991,"LONGITUDE":147.393463,"STATE_NAME":"NSW"},{"NAME":"Carwell","POSTCODE":2849,"LATITUDE":-32.846066,"LONGITUDE":149.910645,"STATE_NAME":"NSW"},{"NAME":"Carwoola","POSTCODE":2620,"LATITUDE":-35.345242,"LONGITUDE":149.269363,"STATE_NAME":"NSW"},{"NAME":"Cascade","POSTCODE":2453,"LATITUDE":-30.232342,"LONGITUDE":152.791061,"STATE_NAME":"NSW"},{"NAME":"Casino","POSTCODE":2470,"LATITUDE":-28.864241,"LONGITUDE":153.045685,"STATE_NAME":"NSW"},{"NAME":"Cassilis","POSTCODE":2329,"LATITUDE":-32.006393,"LONGITUDE":149.978836,"STATE_NAME":"NSW"},{"NAME":"Castle Cove","POSTCODE":2069,"LATITUDE":-33.786018,"LONGITUDE":151.208694,"STATE_NAME":"NSW"},{"NAME":"Castle Doyle","POSTCODE":2350,"LATITUDE":-30.642605,"LONGITUDE":151.764648,"STATE_NAME":"NSW"},{"NAME":"Castle Hill","POSTCODE":1765,"LATITUDE":51.664951,"LONGITUDE":-3.249159,"STATE_NAME":"NSW"},{"NAME":"Castle Hill","POSTCODE":2154,"LATITUDE":-33.732819,"LONGITUDE":151.004959,"STATE_NAME":"NSW"},{"NAME":"Castle Rock","POSTCODE":2333,"LATITUDE":-32.262703,"LONGITUDE":150.728058,"STATE_NAME":"NSW"},{"NAME":"Castlecrag","POSTCODE":2068,"LATITUDE":-33.802513,"LONGITUDE":151.211945,"STATE_NAME":"NSW"},{"NAME":"Castlereagh","POSTCODE":2749,"LATITUDE":-33.669533,"LONGITUDE":150.676682,"STATE_NAME":"NSW"},{"NAME":"Casuarina","POSTCODE":2487,"LATITUDE":-28.292339,"LONGITUDE":153.572586,"STATE_NAME":"NSW"},{"NAME":"Casula","POSTCODE":2170,"LATITUDE":-33.946823,"LONGITUDE":150.900772,"STATE_NAME":"NSW"},{"NAME":"Casula Mall","POSTCODE":2170,"LATITUDE":-33.94714,"LONGITUDE":150.90152,"STATE_NAME":"NSW"},{"NAME":"Catalina","POSTCODE":2536,"LATITUDE":-35.721027,"LONGITUDE":150.18959,"STATE_NAME":"NSW"},{"NAME":"Cataract","POSTCODE":2560,"LATITUDE":-34.389545,"LONGITUDE":150.843872,"STATE_NAME":"NSW"},{"NAME":"Cathcart","POSTCODE":2632,"LATITUDE":-36.843494,"LONGITUDE":149.388336,"STATE_NAME":"NSW"},{"NAME":"Catherine Field","POSTCODE":2557,"LATITUDE":-33.993484,"LONGITUDE":150.764648,"STATE_NAME":"NSW"},{"NAME":"Catherine Hill Bay","POSTCODE":2281,"LATITUDE":-33.147789,"LONGITUDE":151.628494,"STATE_NAME":"NSW"},{"NAME":"Cathundral","POSTCODE":2823,"LATITUDE":-31.9718,"LONGITUDE":147.785004,"STATE_NAME":"NSW"},{"NAME":"Cattai","POSTCODE":2756,"LATITUDE":-33.559929,"LONGITUDE":150.907455,"STATE_NAME":"NSW"},{"NAME":"Cattle Creek","POSTCODE":2339,"LATITUDE":-31.761009,"LONGITUDE":150.242126,"STATE_NAME":"NSW"},{"NAME":"Cavan","POSTCODE":2582,"LATITUDE":-35.016109,"LONGITUDE":148.853363,"STATE_NAME":"NSW"},{"NAME":"Caves Beach","POSTCODE":2281,"LATITUDE":-33.10495,"LONGITUDE":151.64505,"STATE_NAME":"NSW"},{"NAME":"Cawdor","POSTCODE":2570,"LATITUDE":-34.10817,"LONGITUDE":150.672104,"STATE_NAME":"NSW"},{"NAME":"Cawongla","POSTCODE":2474,"LATITUDE":-28.600683,"LONGITUDE":153.097488,"STATE_NAME":"NSW"},{"NAME":"Cecil Hills","POSTCODE":2171,"LATITUDE":-33.887115,"LONGITUDE":150.848587,"STATE_NAME":"NSW"},{"NAME":"Cecil Park","POSTCODE":2178,"LATITUDE":-33.874702,"LONGITUDE":150.841843,"STATE_NAME":"NSW"},{"NAME":"Cedar Brush Creek","POSTCODE":2259,"LATITUDE":-33.193451,"LONGITUDE":151.277115,"STATE_NAME":"NSW"},{"NAME":"Cedar Creek","POSTCODE":2325,"LATITUDE":-32.856625,"LONGITUDE":151.193924,"STATE_NAME":"NSW"},{"NAME":"Cedar Creek","POSTCODE":2484,"LATITUDE":-28.421276,"LONGITUDE":153.260406,"STATE_NAME":"NSW"},{"NAME":"Cedar Party","POSTCODE":2429,"LATITUDE":-31.808334,"LONGITUDE":152.384399,"STATE_NAME":"NSW"},{"NAME":"Cedar Point","POSTCODE":2474,"LATITUDE":-28.678381,"LONGITUDE":152.99971,"STATE_NAME":"NSW"},{"NAME":"Cells River","POSTCODE":2424,"LATITUDE":-31.654993,"LONGITUDE":152.085571,"STATE_NAME":"NSW"},{"NAME":"Centennial Park","POSTCODE":2021,"LATITUDE":-33.894379,"LONGITUDE":151.232986,"STATE_NAME":"NSW"},{"NAME":"Central Colo","POSTCODE":2756,"LATITUDE":-33.418678,"LONGITUDE":150.796112,"STATE_NAME":"NSW"},{"NAME":"Central Macdonald","POSTCODE":2775,"LATITUDE":-33.343197,"LONGITUDE":150.976944,"STATE_NAME":"NSW"},{"NAME":"Central Mangrove","POSTCODE":2250,"LATITUDE":-33.29142,"LONGITUDE":151.235321,"STATE_NAME":"NSW"},{"NAME":"Central Tilba","POSTCODE":2546,"LATITUDE":-36.313225,"LONGITUDE":150.075287,"STATE_NAME":"NSW"},{"NAME":"Cessnock","POSTCODE":2325,"LATITUDE":-32.834579,"LONGITUDE":151.356461,"STATE_NAME":"NSW"},{"NAME":"Cessnock West","POSTCODE":2325,"LATITUDE":-32.834579,"LONGITUDE":151.356461,"STATE_NAME":"NSW"},{"NAME":"Chaelundi","POSTCODE":2460,"LATITUDE":-29.979193,"LONGITUDE":152.436172,"STATE_NAME":"NSW"},{"NAME":"Chain Valley Bay","POSTCODE":2259,"LATITUDE":-33.17268,"LONGITUDE":151.571075,"STATE_NAME":"NSW"},{"NAME":"Chakola","POSTCODE":2630,"LATITUDE":-36.098736,"LONGITUDE":149.18483,"STATE_NAME":"NSW"},{"NAME":"Chambigne","POSTCODE":2460,"LATITUDE":-29.828402,"LONGITUDE":152.723038,"STATE_NAME":"NSW"},{"NAME":"Charbon","POSTCODE":2848,"LATITUDE":-32.881378,"LONGITUDE":149.965271,"STATE_NAME":"NSW"},{"NAME":"Charles Sturt University","POSTCODE":2678,"LATITUDE":-35.065556,"LONGITUDE":147.35968,"STATE_NAME":"NSW"},{"NAME":"Charles Sturt University","POSTCODE":2795,"LATITUDE":-35.056911,"LONGITUDE":147.351089,"STATE_NAME":"NSW"},{"NAME":"Charlestown","POSTCODE":2290,"LATITUDE":-32.963402,"LONGITUDE":151.695053,"STATE_NAME":"NSW"},{"NAME":"Charleys Forest","POSTCODE":2622,"LATITUDE":-35.360252,"LONGITUDE":150.003677,"STATE_NAME":"NSW"},{"NAME":"Charlotte Bay","POSTCODE":2428,"LATITUDE":-32.34864,"LONGITUDE":152.510178,"STATE_NAME":"NSW"},{"NAME":"Charlton","POSTCODE":2795,"LATITUDE":-33.673538,"LONGITUDE":149.635086,"STATE_NAME":"NSW"},{"NAME":"Charmhaven","POSTCODE":2263,"LATITUDE":-33.226994,"LONGITUDE":151.503006,"STATE_NAME":"NSW"},{"NAME":"Chatham","POSTCODE":2430,"LATITUDE":-31.900682,"LONGITUDE":152.48201,"STATE_NAME":"NSW"},{"NAME":"Chatham Valley","POSTCODE":2787,"LATITUDE":-33.843159,"LONGITUDE":149.876236,"STATE_NAME":"NSW"},{"NAME":"Chatsbury","POSTCODE":2580,"LATITUDE":-34.539001,"LONGITUDE":149.78334,"STATE_NAME":"NSW"},{"NAME":"Chatswood","POSTCODE":2057,"LATITUDE":-33.796799,"LONGITUDE":151.181,"STATE_NAME":"NSW"},{"NAME":"Chatswood","POSTCODE":2067,"LATITUDE":-33.796078,"LONGITUDE":151.183105,"STATE_NAME":"NSW"},{"NAME":"Chatswood West","POSTCODE":2067,"LATITUDE":-33.794109,"LONGITUDE":151.166153,"STATE_NAME":"NSW"},{"NAME":"Chatsworth","POSTCODE":2469,"LATITUDE":-29.373627,"LONGITUDE":153.25177,"STATE_NAME":"NSW"},{"NAME":"Cheero Point","POSTCODE":2083,"LATITUDE":-33.508862,"LONGITUDE":151.192032,"STATE_NAME":"NSW"},{"NAME":"Cheltenham","POSTCODE":2119,"LATITUDE":-33.757809,"LONGITUDE":151.080292,"STATE_NAME":"NSW"},{"NAME":"Cherry Tree Hill","POSTCODE":2360,"LATITUDE":-29.532171,"LONGITUDE":150.996323,"STATE_NAME":"NSW"},{"NAME":"Cherrybrook","POSTCODE":2126,"LATITUDE":-33.728748,"LONGITUDE":151.041306,"STATE_NAME":"NSW"},{"NAME":"Chester Hill","POSTCODE":2162,"LATITUDE":-33.88308,"LONGITUDE":151.001266,"STATE_NAME":"NSW"},{"NAME":"Chichester","POSTCODE":2420,"LATITUDE":-32.195393,"LONGITUDE":151.618744,"STATE_NAME":"NSW"},{"NAME":"Chifley","POSTCODE":2036,"LATITUDE":-33.967041,"LONGITUDE":151.243317,"STATE_NAME":"NSW"},{"NAME":"Chilcotts Creek","POSTCODE":2339,"LATITUDE":-31.6747,"LONGITUDE":150.806061,"STATE_NAME":"NSW"},{"NAME":"Chilcotts Grass","POSTCODE":2480,"LATITUDE":-28.831535,"LONGITUDE":153.346848,"STATE_NAME":"NSW"},{"NAME":"Chillingham","POSTCODE":2484,"LATITUDE":-28.313543,"LONGITUDE":153.276138,"STATE_NAME":"NSW"},{"NAME":"Chinderah","POSTCODE":2487,"LATITUDE":-28.239573,"LONGITUDE":153.550385,"STATE_NAME":"NSW"},{"NAME":"Chinnock","POSTCODE":2550,"LATITUDE":-36.705605,"LONGITUDE":149.937515,"STATE_NAME":"NSW"},{"NAME":"Chippendale","POSTCODE":2008,"LATITUDE":-33.88448,"LONGITUDE":151.197342,"STATE_NAME":"NSW"},{"NAME":"Chipping Norton","POSTCODE":2170,"LATITUDE":-33.919449,"LONGITUDE":150.953369,"STATE_NAME":"NSW"},{"NAME":"Chisholm","POSTCODE":2322,"LATITUDE":-32.768356,"LONGITUDE":151.593536,"STATE_NAME":"NSW"},{"NAME":"Chiswick","POSTCODE":2046,"LATITUDE":-33.848057,"LONGITUDE":151.141144,"STATE_NAME":"NSW"},{"NAME":"Chittaway Bay","POSTCODE":2261,"LATITUDE":-33.327209,"LONGITUDE":151.429825,"STATE_NAME":"NSW"},{"NAME":"Chittaway Point","POSTCODE":2261,"LATITUDE":-33.323612,"LONGITUDE":151.442337,"STATE_NAME":"NSW"},{"NAME":"Chowan Creek","POSTCODE":2484,"LATITUDE":-28.459831,"LONGITUDE":153.386993,"STATE_NAME":"NSW"},{"NAME":"Chullora","POSTCODE":2190,"LATITUDE":-33.891392,"LONGITUDE":151.050201,"STATE_NAME":"NSW"},{"NAME":"Church Point","POSTCODE":2105,"LATITUDE":-33.645157,"LONGITUDE":151.284973,"STATE_NAME":"NSW"},{"NAME":"Clandulla","POSTCODE":2848,"LATITUDE":-32.906879,"LONGITUDE":149.954056,"STATE_NAME":"NSW"},{"NAME":"Clare","POSTCODE":2711,"LATITUDE":-33.437614,"LONGITUDE":143.907532,"STATE_NAME":"NSW"},{"NAME":"Claremont Meadows","POSTCODE":2747,"LATITUDE":-33.775105,"LONGITUDE":150.749756,"STATE_NAME":"NSW"},{"NAME":"Clarence","POSTCODE":2790,"LATITUDE":-33.476723,"LONGITUDE":150.223053,"STATE_NAME":"NSW"},{"NAME":"Clarence Town","POSTCODE":2321,"LATITUDE":-32.585079,"LONGITUDE":151.777512,"STATE_NAME":"NSW"},{"NAME":"Clarendon","POSTCODE":2756,"LATITUDE":-33.608753,"LONGITUDE":150.787384,"STATE_NAME":"NSW"},{"NAME":"Clarenza","POSTCODE":2460,"LATITUDE":-29.720421,"LONGITUDE":152.963852,"STATE_NAME":"NSW"},{"NAME":"Clareville","POSTCODE":2107,"LATITUDE":-33.629295,"LONGITUDE":151.316269,"STATE_NAME":"NSW"},