[{"NAME":"Aarons Pass","POSTCODE":2850,"LATITUDE":-32.8745,"LONGITUDE":149.8005,"STATE_NAME":"NSW"},{"NAME":"Abbotsbury","POSTCODE":2176,"LATITUDE":-33.8737,"LONGITUDE":150.8595,"STATE_NAME":"NSW"},{"NAME":"Abbotsford","POSTCODE":2046,"LATITUDE":-33.8503,"LONGITUDE":151.1298,"STATE_NAME":"NSW"},{"NAME":"Abercrombie","POSTCODE":2795,"LATITUDE":-33.392,"LONGITUDE":149.5617,"STATE_NAME":"NSW"},{"NAME":"Abercrombie River","POSTCODE":2795,"LATITUDE":-33.9116,"LONGITUDE":149.3526,"STATE_NAME":"NSW"},{"NAME":"Aberdare","POSTCODE":2325,"LATITUDE":-32.8386,"LONGITUDE":151.3695,"STATE_NAME":"NSW"},{"NAME":"Aberdeen","POSTCODE":2336,"LATITUDE":-32.1704,"LONGITUDE":150.9042,"STATE_NAME":"NSW"},{"NAME":"Aberfoyle","POSTCODE":2350,"LATITUDE":-30.2369,"LONGITUDE":151.9884,"STATE_NAME":"NSW"},{"NAME":"Aberglasslyn","POSTCODE":2320,"LATITUDE":-32.6935,"LONGITUDE":151.5326,"STATE_NAME":"NSW"},{"NAME":"Abermain","POSTCODE":2326,"LATITUDE":-32.8177,"LONGITUDE":151.4361,"STATE_NAME":"NSW"},{"NAME":"Abernethy","POSTCODE":2325,"LATITUDE":-32.8859,"LONGITUDE":151.4023,"STATE_NAME":"NSW"},{"NAME":"Abington","POSTCODE":2350,"LATITUDE":-30.3267,"LONGITUDE":151.2179,"STATE_NAME":"NSW"},{"NAME":"Acacia Creek","POSTCODE":2476,"LATITUDE":-28.3764,"LONGITUDE":152.3215,"STATE_NAME":"NSW"},{"NAME":"Acacia Gardens","POSTCODE":2763,"LATITUDE":-33.7341,"LONGITUDE":150.914,"STATE_NAME":"NSW"},{"NAME":"Adaminaby","POSTCODE":2629,"LATITUDE":-35.9976,"LONGITUDE":148.7719,"STATE_NAME":"NSW"},{"NAME":"Adamstown","POSTCODE":2289,"LATITUDE":-32.9391,"LONGITUDE":151.7258,"STATE_NAME":"NSW"},{"NAME":"Adamstown Heights","POSTCODE":2289,"LATITUDE":-32.9489,"LONGITUDE":151.7106,"STATE_NAME":"NSW"},{"NAME":"Adelong","POSTCODE":2729,"LATITUDE":-35.3048,"LONGITUDE":148.0692,"STATE_NAME":"NSW"},{"NAME":"Adjungbilly","POSTCODE":2727,"LATITUDE":-35.0313,"LONGITUDE":148.4601,"STATE_NAME":"NSW"},{"NAME":"Afterlee","POSTCODE":2474,"LATITUDE":-28.5695,"LONGITUDE":152.8254,"STATE_NAME":"NSW"},{"NAME":"Agnes Banks","POSTCODE":2753,"LATITUDE":-33.6263,"LONGITUDE":150.6988,"STATE_NAME":"NSW"},{"NAME":"Airds","POSTCODE":2560,"LATITUDE":-34.0867,"LONGITUDE":150.8329,"STATE_NAME":"NSW"},{"NAME":"Akolele","POSTCODE":2546,"LATITUDE":-36.3495,"LONGITUDE":150.0789,"STATE_NAME":"NSW"},{"NAME":"Albert","POSTCODE":2873,"LATITUDE":-32.3807,"LONGITUDE":147.4739,"STATE_NAME":"NSW"},{"NAME":"Albion Park","POSTCODE":2527,"LATITUDE":-34.5823,"LONGITUDE":150.776,"STATE_NAME":"NSW"},{"NAME":"Albion Park Rail","POSTCODE":2527,"LATITUDE":-34.5616,"LONGITUDE":150.7905,"STATE_NAME":"NSW"},{"NAME":"Albury","POSTCODE":2640,"LATITUDE":-36.0734,"LONGITUDE":146.9147,"STATE_NAME":"NSW"},{"NAME":"Aldavilla","POSTCODE":2440,"LATITUDE":-31.0719,"LONGITUDE":152.7602,"STATE_NAME":"NSW"},{"NAME":"Alectown","POSTCODE":2870,"LATITUDE":-32.913,"LONGITUDE":148.2617,"STATE_NAME":"NSW"},{"NAME":"Alexandria","POSTCODE":2015,"LATITUDE":-33.9082,"LONGITUDE":151.192,"STATE_NAME":"NSW"},{"NAME":"Alfords Point","POSTCODE":2234,"LATITUDE":-33.9878,"LONGITUDE":151.0264,"STATE_NAME":"NSW"},{"NAME":"Alfredtown","POSTCODE":2650,"LATITUDE":-35.1545,"LONGITUDE":147.5502,"STATE_NAME":"NSW"},{"NAME":"Alice","POSTCODE":2469,"LATITUDE":-29.0546,"LONGITUDE":152.588,"STATE_NAME":"NSW"},{"NAME":"Alison","POSTCODE":2259,"LATITUDE":-33.2659,"LONGITUDE":151.3986,"STATE_NAME":"NSW"},{"NAME":"Alison","POSTCODE":2420,"LATITUDE":-32.4237,"LONGITUDE":151.773,"STATE_NAME":"NSW"},{"NAME":"Allambie Heights","POSTCODE":2100,"LATITUDE":-33.7696,"LONGITUDE":151.2486,"STATE_NAME":"NSW"},{"NAME":"Allandale","POSTCODE":2320,"LATITUDE":-32.7246,"LONGITUDE":151.4096,"STATE_NAME":"NSW"},{"NAME":"Allawah","POSTCODE":2218,"LATITUDE":-33.9728,"LONGITUDE":151.1134,"STATE_NAME":"NSW"},{"NAME":"Alleena","POSTCODE":2671,"LATITUDE":-34.0922,"LONGITUDE":147.1273,"STATE_NAME":"NSW"},{"NAME":"Allgomera","POSTCODE":2441,"LATITUDE":-30.8187,"LONGITUDE":152.8101,"STATE_NAME":"NSW"},{"NAME":"Allworth","POSTCODE":2425,"LATITUDE":-32.5444,"LONGITUDE":151.9455,"STATE_NAME":"NSW"},{"NAME":"Allynbrook","POSTCODE":2311,"LATITUDE":-32.3499,"LONGITUDE":151.5417,"STATE_NAME":"NSW"},{"NAME":"Alma Park","POSTCODE":2659,"LATITUDE":-35.5995,"LONGITUDE":146.8023,"STATE_NAME":"NSW"},{"NAME":"Alpine","POSTCODE":2575,"LATITUDE":-34.4106,"LONGITUDE":150.5324,"STATE_NAME":"NSW"},{"NAME":"Alstonvale","POSTCODE":2477,"LATITUDE":-28.7946,"LONGITUDE":153.4438,"STATE_NAME":"NSW"},{"NAME":"Alstonville","POSTCODE":2477,"LATITUDE":-28.8397,"LONGITUDE":153.4528,"STATE_NAME":"NSW"},{"NAME":"Alumy Creek","POSTCODE":2460,"LATITUDE":-29.6426,"LONGITUDE":152.959,"STATE_NAME":"NSW"},{"NAME":"Amaroo","POSTCODE":2866,"LATITUDE":-33.1594,"LONGITUDE":148.9274,"STATE_NAME":"NSW"},{"NAME":"Ambarvale","POSTCODE":2560,"LATITUDE":-34.0889,"LONGITUDE":150.7973,"STATE_NAME":"NSW"},{"NAME":"Anabranch North","POSTCODE":2648,"LATITUDE":-33.2892,"LONGITUDE":141.8234,"STATE_NAME":"NSW"},{"NAME":"Anabranch South","POSTCODE":2648,"LATITUDE":-33.7648,"LONGITUDE":141.7163,"STATE_NAME":"NSW"},{"NAME":"Anambah","POSTCODE":2320,"LATITUDE":-32.6789,"LONGITUDE":151.4918,"STATE_NAME":"NSW"},{"NAME":"Ando","POSTCODE":2631,"LATITUDE":-36.7259,"LONGITUDE":149.2937,"STATE_NAME":"NSW"},{"NAME":"Anembo","POSTCODE":2621,"LATITUDE":-35.7711,"LONGITUDE":149.4467,"STATE_NAME":"NSW"},{"NAME":"Angledale","POSTCODE":2550,"LATITUDE":-36.6335,"LONGITUDE":149.8696,"STATE_NAME":"NSW"},{"NAME":"Angledool","POSTCODE":2834,"LATITUDE":-29.1394,"LONGITUDE":147.9258,"STATE_NAME":"NSW"},{"NAME":"Anglers Reach","POSTCODE":2629,"LATITUDE":-36.0106,"LONGITUDE":148.677,"STATE_NAME":"NSW"},{"NAME":"Angourie","POSTCODE":2464,"LATITUDE":-29.46,"LONGITUDE":153.3554,"STATE_NAME":"NSW"},{"NAME":"Anna Bay","POSTCODE":2316,"LATITUDE":-32.7661,"LONGITUDE":152.0749,"STATE_NAME":"NSW"},{"NAME":"Annandale","POSTCODE":2038,"LATITUDE":-33.8806,"LONGITUDE":151.1697,"STATE_NAME":"NSW"},{"NAME":"Annangrove","POSTCODE":2156,"LATITUDE":-33.6554,"LONGITUDE":150.9418,"STATE_NAME":"NSW"},{"NAME":"Appin","POSTCODE":2560,"LATITUDE":-34.2121,"LONGITUDE":150.8066,"STATE_NAME":"NSW"},{"NAME":"Apple Tree Flat","POSTCODE":2850,"LATITUDE":-32.6704,"LONGITUDE":149.7077,"STATE_NAME":"NSW"},{"NAME":"Appleby","POSTCODE":2340,"LATITUDE":-30.9651,"LONGITUDE":150.8237,"STATE_NAME":"NSW"},{"NAME":"Appletree Flat","POSTCODE":2330,"LATITUDE":-32.5169,"LONGITUDE":150.8495,"STATE_NAME":"NSW"},{"NAME":"Apsley","POSTCODE":2820,"LATITUDE":-32.6121,"LONGITUDE":148.9694,"STATE_NAME":"NSW"},{"NAME":"Arable","POSTCODE":2630,"LATITUDE":-36.3781,"LONGITUDE":148.9868,"STATE_NAME":"NSW"},{"NAME":"Arakoon","POSTCODE":2431,"LATITUDE":-30.921,"LONGITUDE":153.0631,"STATE_NAME":"NSW"},{"NAME":"Araluen","POSTCODE":2622,"LATITUDE":-35.6442,"LONGITUDE":149.8193,"STATE_NAME":"NSW"},{"NAME":"Aratula","POSTCODE":2714,"LATITUDE":-35.7791,"LONGITUDE":145.2852,"STATE_NAME":"NSW"},{"NAME":"Arcadia","POSTCODE":2159,"LATITUDE":-33.6136,"LONGITUDE":151.0681,"STATE_NAME":"NSW"},{"NAME":"Arcadia Vale","POSTCODE":2283,"LATITUDE":-33.0583,"LONGITUDE":151.5725,"STATE_NAME":"NSW"},{"NAME":"Ardglen","POSTCODE":2338,"LATITUDE":-31.7291,"LONGITUDE":150.7835,"STATE_NAME":"NSW"},{"NAME":"Arding","POSTCODE":2358,"LATITUDE":-30.5765,"LONGITUDE":151.521,"STATE_NAME":"NSW"},{"NAME":"Ardlethan","POSTCODE":2665,"LATITUDE":-34.3384,"LONGITUDE":146.8424,"STATE_NAME":"NSW"},{"NAME":"Argalong","POSTCODE":2720,"LATITUDE":-35.2969,"LONGITUDE":148.4319,"STATE_NAME":"NSW"},{"NAME":"Argenton","POSTCODE":2284,"LATITUDE":-32.9352,"LONGITUDE":151.6323,"STATE_NAME":"NSW"},{"NAME":"Argents Hill","POSTCODE":2449,"LATITUDE":-30.6088,"LONGITUDE":152.7295,"STATE_NAME":"NSW"},{"NAME":"Argoon","POSTCODE":2707,"LATITUDE":-34.8848,"LONGITUDE":145.6755,"STATE_NAME":"NSW"},{"NAME":"Ariah Park","POSTCODE":2665,"LATITUDE":-34.3103,"LONGITUDE":147.2018,"STATE_NAME":"NSW"},{"NAME":"Arkell","POSTCODE":2795,"LATITUDE":-33.7357,"LONGITUDE":149.3878,"STATE_NAME":"NSW"},{"NAME":"Arkstone","POSTCODE":2795,"LATITUDE":-34.0141,"LONGITUDE":149.6622,"STATE_NAME":"NSW"},{"NAME":"Armatree","POSTCODE":2828,"LATITUDE":-31.4224,"LONGITUDE":148.5095,"STATE_NAME":"NSW"},{"NAME":"Armidale","POSTCODE":2350,"LATITUDE":-30.5005,"LONGITUDE":151.6719,"STATE_NAME":"NSW"},{"NAME":"Arncliffe","POSTCODE":2205,"LATITUDE":-33.9386,"LONGITUDE":151.1478,"STATE_NAME":"NSW"},{"NAME":"Arndell Park","POSTCODE":2148,"LATITUDE":-33.7903,"LONGITUDE":150.882,"STATE_NAME":"NSW"},{"NAME":"Arrawarra","POSTCODE":2456,"LATITUDE":-30.0511,"LONGITUDE":153.1912,"STATE_NAME":"NSW"},{"NAME":"Arrawarra Headland","POSTCODE":2456,"LATITUDE":-30.0671,"LONGITUDE":153.1946,"STATE_NAME":"NSW"},{"NAME":"Artarmon","POSTCODE":2064,"LATITUDE":-33.8119,"LONGITUDE":151.1847,"STATE_NAME":"NSW"},{"NAME":"Arthurville","POSTCODE":2820,"LATITUDE":-32.5511,"LONGITUDE":148.7381,"STATE_NAME":"NSW"},{"NAME":"Arumpo","POSTCODE":2715,"LATITUDE":-33.4946,"LONGITUDE":143.0227,"STATE_NAME":"NSW"},{"NAME":"Ashbury","POSTCODE":2193,"LATITUDE":-33.9011,"LONGITUDE":151.1179,"STATE_NAME":"NSW"},{"NAME":"Ashby","POSTCODE":2463,"LATITUDE":-29.4427,"LONGITUDE":153.1846,"STATE_NAME":"NSW"},{"NAME":"Ashby Heights","POSTCODE":2463,"LATITUDE":-29.4005,"LONGITUDE":153.1793,"STATE_NAME":"NSW"},{"NAME":"Ashby Island","POSTCODE":2463,"LATITUDE":-29.4258,"LONGITUDE":153.204,"STATE_NAME":"NSW"},{"NAME":"Ashcroft","POSTCODE":2168,"LATITUDE":-33.9169,"LONGITUDE":150.901,"STATE_NAME":"NSW"},{"NAME":"Ashfield","POSTCODE":2131,"LATITUDE":-33.8893,"LONGITUDE":151.1274,"STATE_NAME":"NSW"},{"NAME":"Ashford","POSTCODE":2361,"LATITUDE":-29.2912,"LONGITUDE":151.1787,"STATE_NAME":"NSW"},{"NAME":"Ashley","POSTCODE":2400,"LATITUDE":-29.2463,"LONGITUDE":149.7876,"STATE_NAME":"NSW"},{"NAME":"Ashmont","POSTCODE":2650,"LATITUDE":-35.1245,"LONGITUDE":147.332,"STATE_NAME":"NSW"},{"NAME":"Ashtonfield","POSTCODE":2323,"LATITUDE":-32.7781,"LONGITUDE":151.5997,"STATE_NAME":"NSW"},{"NAME":"Asquith","POSTCODE":2077,"LATITUDE":-33.6883,"LONGITUDE":151.1166,"STATE_NAME":"NSW"},{"NAME":"Atholwood","POSTCODE":2361,"LATITUDE":-29.0504,"LONGITUDE":151.0476,"STATE_NAME":"NSW"},{"NAME":"Attunga","POSTCODE":2345,"LATITUDE":-30.8994,"LONGITUDE":150.7838,"STATE_NAME":"NSW"},{"NAME":"Auburn","POSTCODE":2144,"LATITUDE":-33.851,"LONGITUDE":151.0282,"STATE_NAME":"NSW"},{"NAME":"Auburn Vale","POSTCODE":2360,"LATITUDE":-29.8375,"LONGITUDE":151.0256,"STATE_NAME":"NSW"},{"NAME":"Austinmer","POSTCODE":2515,"LATITUDE":-34.3019,"LONGITUDE":150.9278,"STATE_NAME":"NSW"},{"NAME":"Austral","POSTCODE":2179,"LATITUDE":-33.9238,"LONGITUDE":150.8088,"STATE_NAME":"NSW"},{"NAME":"Austral Eden","POSTCODE":2440,"LATITUDE":-31.022,"LONGITUDE":152.9238,"STATE_NAME":"NSW"},{"NAME":"Avalon Beach","POSTCODE":2107,"LATITUDE":-33.6287,"LONGITUDE":151.3281,"STATE_NAME":"NSW"},{"NAME":"Avisford","POSTCODE":2850,"LATITUDE":-32.7521,"LONGITUDE":149.4794,"STATE_NAME":"NSW"},{"NAME":"Avoca","POSTCODE":2577,"LATITUDE":-34.5964,"LONGITUDE":150.4703,"STATE_NAME":"NSW"},{"NAME":"Avoca Beach","POSTCODE":2251,"LATITUDE":-33.4705,"LONGITUDE":151.4272,"STATE_NAME":"NSW"},{"NAME":"Avon","POSTCODE":2574,"LATITUDE":-34.4399,"LONGITUDE":150.6777,"STATE_NAME":"NSW"},{"NAME":"Avondale","POSTCODE":2530,"LATITUDE":-34.5221,"LONGITUDE":150.7455,"STATE_NAME":"NSW"},{"NAME":"Avonside","POSTCODE":2628,"LATITUDE":-36.4105,"LONGITUDE":148.7199,"STATE_NAME":"NSW"},{"NAME":"Awaba","POSTCODE":2283,"LATITUDE":-33.0186,"LONGITUDE":151.5414,"STATE_NAME":"NSW"},{"NAME":"Aylmerton","POSTCODE":2575,"LATITUDE":-34.4251,"LONGITUDE":150.4988,"STATE_NAME":"NSW"},{"NAME":"Baan Baa","POSTCODE":2390,"LATITUDE":-30.5701,"LONGITUDE":149.935,"STATE_NAME":"NSW"},{"NAME":"Babinda","POSTCODE":2825,"LATITUDE":-31.9452,"LONGITUDE":146.5218,"STATE_NAME":"NSW"},{"NAME":"Babyl Creek","POSTCODE":2470,"LATITUDE":-28.7238,"LONGITUDE":152.7863,"STATE_NAME":"NSW"},{"NAME":"Back Creek","POSTCODE":2671,"LATITUDE":-33.8586,"LONGITUDE":147.4564,"STATE_NAME":"NSW"},{"NAME":"Back Creek","POSTCODE":2622,"LATITUDE":-35.341,"LONGITUDE":149.9441,"STATE_NAME":"NSW"},{"NAME":"Back Creek","POSTCODE":2390,"LATITUDE":-30.1233,"LONGITUDE":150.2712,"STATE_NAME":"NSW"},{"NAME":"Back Creek","POSTCODE":2372,"LATITUDE":-28.9341,"LONGITUDE":151.7053,"STATE_NAME":"NSW"},{"NAME":"Back Creek","POSTCODE":2422,"LATITUDE":-31.9622,"LONGITUDE":152.0479,"STATE_NAME":"NSW"},{"NAME":"Back Creek","POSTCODE":2484,"LATITUDE":-28.4104,"LONGITUDE":153.1683,"STATE_NAME":"NSW"},{"NAME":"Back Forest","POSTCODE":2535,"LATITUDE":-34.8436,"LONGITUDE":150.6827,"STATE_NAME":"NSW"},{"NAME":"Backmede","POSTCODE":2470,"LATITUDE":-28.7612,"LONGITUDE":153.0239,"STATE_NAME":"NSW"},{"NAME":"Backwater","POSTCODE":2365,"LATITUDE":-30.0524,"LONGITUDE":151.9087,"STATE_NAME":"NSW"},{"NAME":"Badgerys Creek","POSTCODE":2555,"LATITUDE":-33.8817,"LONGITUDE":150.7441,"STATE_NAME":"NSW"},{"NAME":"Badja","POSTCODE":2630,"LATITUDE":-36.0419,"LONGITUDE":149.5113,"STATE_NAME":"NSW"},{"NAME":"Baerami","POSTCODE":2333,"LATITUDE":-32.4027,"LONGITUDE":150.4576,"STATE_NAME":"NSW"},{"NAME":"Baerami Creek","POSTCODE":2333,"LATITUDE":-32.5749,"LONGITUDE":150.4922,"STATE_NAME":"NSW"},{"NAME":"Bagnoo","POSTCODE":2446,"LATITUDE":-31.4731,"LONGITUDE":152.5314,"STATE_NAME":"NSW"},{"NAME":"Bago","POSTCODE":2446,"LATITUDE":-31.5187,"LONGITUDE":152.6778,"STATE_NAME":"NSW"},{"NAME":"Bagotville","POSTCODE":2477,"LATITUDE":-28.9768,"LONGITUDE":153.4147,"STATE_NAME":"NSW"},{"NAME":"Bakers Creek","POSTCODE":2359,"LATITUDE":-30.3172,"LONGITUDE":150.9993,"STATE_NAME":"NSW"},{"NAME":"Bakers Creek","POSTCODE":2422,"LATITUDE":-31.9824,"LONGITUDE":152.0996,"STATE_NAME":"NSW"},{"NAME":"Bakers Creek","POSTCODE":2447,"LATITUDE":-30.8275,"LONGITUDE":152.7111,"STATE_NAME":"NSW"},{"NAME":"Bakers Swamp","POSTCODE":2820,"LATITUDE":-32.7798,"LONGITUDE":148.9156,"STATE_NAME":"NSW"},{"NAME":"Balaclava","POSTCODE":2575,"LATITUDE":-34.4399,"LONGITUDE":150.4824,"STATE_NAME":"NSW"},{"NAME":"Balala","POSTCODE":2358,"LATITUDE":-30.6184,"LONGITUDE":151.2853,"STATE_NAME":"NSW"},{"NAME":"Balcolyn","POSTCODE":2264,"LATITUDE":-33.0946,"LONGITUDE":151.552,"STATE_NAME":"NSW"},{"NAME":"Bald Blair","POSTCODE":2365,"LATITUDE":-30.1732,"LONGITUDE":151.8157,"STATE_NAME":"NSW"},{"NAME":"Bald Hills","POSTCODE":2549,"LATITUDE":-36.9103,"LONGITUDE":149.843,"STATE_NAME":"NSW"},{"NAME":"Bald Nob","POSTCODE":2370,"LATITUDE":-29.6786,"LONGITUDE":151.9923,"STATE_NAME":"NSW"},{"NAME":"Bald Ridge","POSTCODE":2795,"LATITUDE":-33.9371,"LONGITUDE":149.4227,"STATE_NAME":"NSW"},{"NAME":"Baldersleigh","POSTCODE":2365,"LATITUDE":-30.2422,"LONGITUDE":151.4785,"STATE_NAME":"NSW"},{"NAME":"Baldry","POSTCODE":2867,"LATITUDE":-32.8814,"LONGITUDE":148.4865,"STATE_NAME":"NSW"},{"NAME":"Balfours Peak","POSTCODE":2403,"LATITUDE":-29.464,"LONGITUDE":150.7988,"STATE_NAME":"NSW"},{"NAME":"Balgowlah","POSTCODE":2093,"LATITUDE":-33.7945,"LONGITUDE":151.2611,"STATE_NAME":"NSW"},{"NAME":"Balgowlah Heights","POSTCODE":2093,"LATITUDE":-33.8079,"LONGITUDE":151.2655,"STATE_NAME":"NSW"},{"NAME":"Balgownie","POSTCODE":2519,"LATITUDE":-34.3866,"LONGITUDE":150.8717,"STATE_NAME":"NSW"},{"NAME":"Balickera","POSTCODE":2324,"LATITUDE":-32.6534,"LONGITUDE":151.8201,"STATE_NAME":"NSW"},{"NAME":"Balladoran","POSTCODE":2822,"LATITUDE":-31.8948,"LONGITUDE":148.558,"STATE_NAME":"NSW"},{"NAME":"Ballalaba","POSTCODE":2622,"LATITUDE":-35.6163,"LONGITUDE":149.6389,"STATE_NAME":"NSW"},{"NAME":"Balldale","POSTCODE":2646,"LATITUDE":-35.8036,"LONGITUDE":146.5051,"STATE_NAME":"NSW"},{"NAME":"Ballengarra","POSTCODE":2441,"LATITUDE":-31.3125,"LONGITUDE":152.7013,"STATE_NAME":"NSW"},{"NAME":"Ballimore","POSTCODE":2830,"LATITUDE":-32.1667,"LONGITUDE":148.884,"STATE_NAME":"NSW"},{"NAME":"Ballina","POSTCODE":2478,"LATITUDE":-28.844,"LONGITUDE":153.5579,"STATE_NAME":"NSW"},{"NAME":"Ballyroe","POSTCODE":2795,"LATITUDE":-34.0601,"LONGITUDE":149.5709,"STATE_NAME":"NSW"},{"NAME":"Balmain","POSTCODE":2041,"LATITUDE":-33.8583,"LONGITUDE":151.1809,"STATE_NAME":"NSW"},{"NAME":"Balmain East","POSTCODE":2041,"LATITUDE":-33.8571,"LONGITUDE":151.1921,"STATE_NAME":"NSW"},{"NAME":"Balmoral","POSTCODE":2571,"LATITUDE":-34.2997,"LONGITUDE":150.5164,"STATE_NAME":"NSW"},{"NAME":"Balmoral","POSTCODE":2283,"LATITUDE":-33.0462,"LONGITUDE":151.5766,"STATE_NAME":"NSW"},{"NAME":"Balranald","POSTCODE":2715,"LATITUDE":-34.3432,"LONGITUDE":143.3892,"STATE_NAME":"NSW"},{"NAME":"Bamarang","POSTCODE":2540,"LATITUDE":-34.905,"LONGITUDE":150.5208,"STATE_NAME":"NSW"},{"NAME":"Banda Banda","POSTCODE":2446,"LATITUDE":-31.2012,"LONGITUDE":152.4631,"STATE_NAME":"NSW"},{"NAME":"Bandon Grove","POSTCODE":2420,"LATITUDE":-32.2758,"LONGITUDE":151.7158,"STATE_NAME":"NSW"},{"NAME":"Bangadang","POSTCODE":2729,"LATITUDE":-35.2733,"LONGITUDE":147.983,"STATE_NAME":"NSW"},{"NAME":"Bangalee","POSTCODE":2541,"LATITUDE":-34.8419,"LONGITUDE":150.5542,"STATE_NAME":"NSW"},{"NAME":"Bangalow","POSTCODE":2479,"LATITUDE":-28.6813,"LONGITUDE":153.5239,"STATE_NAME":"NSW"},{"NAME":"Bangheet","POSTCODE":2404,"LATITUDE":-29.836,"LONGITUDE":150.4174,"STATE_NAME":"NSW"},{"NAME":"Bango","POSTCODE":2582,"LATITUDE":-34.7602,"LONGITUDE":148.959,"STATE_NAME":"NSW"},{"NAME":"Bangor","POSTCODE":2234,"LATITUDE":-34.0167,"LONGITUDE":151.0323,"STATE_NAME":"NSW"},{"NAME":"Banksia","POSTCODE":2216,"LATITUDE":-33.9464,"LONGITUDE":151.1462,"STATE_NAME":"NSW"},{"NAME":"Banksmeadow","POSTCODE":2019,"LATITUDE":-33.9554,"LONGITUDE":151.2148,"STATE_NAME":"NSW"},{"NAME":"Bankstown","POSTCODE":2200,"LATITUDE":-33.921,"LONGITUDE":151.0314,"STATE_NAME":"NSW"},{"NAME":"Bankstown Aerodrome","POSTCODE":2200,"LATITUDE":-33.9233,"LONGITUDE":150.9862,"STATE_NAME":"NSW"},{"NAME":"Bannaby","POSTCODE":2580,"LATITUDE":-34.4083,"LONGITUDE":150.0003,"STATE_NAME":"NSW"},{"NAME":"Bannister","POSTCODE":2580,"LATITUDE":-34.6123,"LONGITUDE":149.4883,"STATE_NAME":"NSW"},{"NAME":"Banoon","POSTCODE":2347,"LATITUDE":-30.5326,"LONGITUDE":150.4183,"STATE_NAME":"NSW"},{"NAME":"Banora Point","POSTCODE":2486,"LATITUDE":-28.2248,"LONGITUDE":153.5333,"STATE_NAME":"NSW"},{"NAME":"Banyabba","POSTCODE":2460,"LATITUDE":-29.3933,"LONGITUDE":152.9407,"STATE_NAME":"NSW"},{"NAME":"Bar Beach","POSTCODE":2300,"LATITUDE":-32.9393,"LONGITUDE":151.7676,"STATE_NAME":"NSW"},{"NAME":"Bar Point","POSTCODE":2083,"LATITUDE":-33.4932,"LONGITUDE":151.1727,"STATE_NAME":"NSW"},{"NAME":"Bara","POSTCODE":2850,"LATITUDE":-32.5708,"LONGITUDE":149.854,"STATE_NAME":"NSW"},{"NAME":"Baradine","POSTCODE":2396,"LATITUDE":-30.9217,"LONGITUDE":149.1013,"STATE_NAME":"NSW"},{"NAME":"Barangaroo","POSTCODE":2000,"LATITUDE":-33.8614,"LONGITUDE":151.2015,"STATE_NAME":"NSW"},{"NAME":"Barcoongere","POSTCODE":2460,"LATITUDE":-29.9002,"LONGITUDE":153.2017,"STATE_NAME":"NSW"},{"NAME":"Barden Ridge","POSTCODE":2234,"LATITUDE":-34.0351,"LONGITUDE":151.0052,"STATE_NAME":"NSW"},{"NAME":"Bardia","POSTCODE":2565,"LATITUDE":-33.9764,"LONGITUDE":150.8611,"STATE_NAME":"NSW"},{"NAME":"Bardwell Park","POSTCODE":2207,"LATITUDE":-33.9357,"LONGITUDE":151.124,"STATE_NAME":"NSW"},{"NAME":"Bardwell Valley","POSTCODE":2207,"LATITUDE":-33.9374,"LONGITUDE":151.1314,"STATE_NAME":"NSW"},{"NAME":"Barellan","POSTCODE":2665,"LATITUDE":-34.2011,"LONGITUDE":146.6074,"STATE_NAME":"NSW"},{"NAME":"Bargo","POSTCODE":2574,"LATITUDE":-34.2801,"LONGITUDE":150.5869,"STATE_NAME":"NSW"},{"NAME":"Barham","POSTCODE":2732,"LATITUDE":-35.6054,"LONGITUDE":144.2099,"STATE_NAME":"NSW"},{"NAME":"Barigan","POSTCODE":2850,"LATITUDE":-32.5103,"LONGITUDE":149.9799,"STATE_NAME":"NSW"},{"NAME":"Barkers Vale","POSTCODE":2474,"LATITUDE":-28.5257,"LONGITUDE":153.123,"STATE_NAME":"NSW"},{"NAME":"Barmedman","POSTCODE":2668,"LATITUDE":-34.1221,"LONGITUDE":147.416,"STATE_NAME":"NSW"},{"NAME":"Barneys Reef","POSTCODE":2852,"LATITUDE":-32.1745,"LONGITUDE":149.5084,"STATE_NAME":"NSW"},{"NAME":"Barnsley","POSTCODE":2278,"LATITUDE":-32.9286,"LONGITUDE":151.586,"STATE_NAME":"NSW"},{"NAME":"Barooga","POSTCODE":3644,"LATITUDE":-35.9094,"LONGITUDE":145.7112,"STATE_NAME":"NSW"},{"NAME":"Barraba","POSTCODE":2347,"LATITUDE":-30.3862,"LONGITUDE":150.5573,"STATE_NAME":"NSW"},{"NAME":"Barrack Heights","POSTCODE":2528,"LATITUDE":-34.563,"LONGITUDE":150.8545,"STATE_NAME":"NSW"},{"NAME":"Barrack Point","POSTCODE":2528,"LATITUDE":-34.5633,"LONGITUDE":150.8695,"STATE_NAME":"NSW"},{"NAME":"Barraganyatti","POSTCODE":2441,"LATITUDE":-30.8737,"LONGITUDE":152.9186,"STATE_NAME":"NSW"},{"NAME":"Barragga Bay","POSTCODE":2546,"LATITUDE":-36.5036,"LONGITUDE":150.0525,"STATE_NAME":"NSW"},{"NAME":"Barratta","POSTCODE":2710,"LATITUDE":-35.2002,"LONGITUDE":144.5342,"STATE_NAME":"NSW"},{"NAME":"Barren Grounds","POSTCODE":2577,"LATITUDE":-34.6978,"LONGITUDE":150.7319,"STATE_NAME":"NSW"},{"NAME":"Barrengarry","POSTCODE":2577,"LATITUDE":-34.6866,"LONGITUDE":150.5198,"STATE_NAME":"NSW"},{"NAME":"Barretts Creek","POSTCODE":2460,"LATITUDE":-29.3582,"LONGITUDE":152.7594,"STATE_NAME":"NSW"},{"NAME":"Barringella","POSTCODE":2540,"LATITUDE":-34.9125,"LONGITUDE":150.4576,"STATE_NAME":"NSW"},{"NAME":"Barrington","POSTCODE":2422,"LATITUDE":-31.9911,"LONGITUDE":151.9009,"STATE_NAME":"NSW"},{"NAME":"Barrington Tops","POSTCODE":2422,"LATITUDE":-31.959,"LONGITUDE":151.5297,"STATE_NAME":"NSW"},{"NAME":"Barry","POSTCODE":2799,"LATITUDE":-33.6488,"LONGITUDE":149.2734,"STATE_NAME":"NSW"},{"NAME":"Barry","POSTCODE":2340,"LATITUDE":-31.6018,"LONGITUDE":151.2909,"STATE_NAME":"NSW"},{"NAME":"Baryulgil","POSTCODE":2460,"LATITUDE":-29.2222,"LONGITUDE":152.6138,"STATE_NAME":"NSW"},{"NAME":"Basin View","POSTCODE":2540,"LATITUDE":-35.0927,"LONGITUDE":150.5575,"STATE_NAME":"NSW"},{"NAME":"Bass Hill","POSTCODE":2197,"LATITUDE":-33.9006,"LONGITUDE":150.9985,"STATE_NAME":"NSW"},{"NAME":"Bassendean","POSTCODE":2365,"LATITUDE":-30.0604,"LONGITUDE":151.181,"STATE_NAME":"NSW"},{"NAME":"Batar Creek","POSTCODE":2439,"LATITUDE":-31.6736,"LONGITUDE":152.6763,"STATE_NAME":"NSW"},{"NAME":"Bateau Bay","POSTCODE":2261,"LATITUDE":-33.3848,"LONGITUDE":151.4691,"STATE_NAME":"NSW"},{"NAME":"Batehaven","POSTCODE":2536,"LATITUDE":-35.7373,"LONGITUDE":150.1985,"STATE_NAME":"NSW"},{"NAME":"Batemans Bay","POSTCODE":2536,"LATITUDE":-35.7063,"LONGITUDE":150.1669,"STATE_NAME":"NSW"},{"NAME":"Bathampton","POSTCODE":2795,"LATITUDE":-33.4896,"LONGITUDE":149.4136,"STATE_NAME":"NSW"},{"NAME":"Bathurst","POSTCODE":2795,"LATITUDE":-33.4189,"LONGITUDE":149.579,"STATE_NAME":"NSW"},{"NAME":"Batlow","POSTCODE":2730,"LATITUDE":-35.5321,"LONGITUDE":148.137,"STATE_NAME":"NSW"},{"NAME":"Baulkham Hills","POSTCODE":2153,"LATITUDE":-33.7537,"LONGITUDE":150.9831,"STATE_NAME":"NSW"},{"NAME":"Baw Baw","POSTCODE":2580,"LATITUDE":-34.7172,"LONGITUDE":149.6455,"STATE_NAME":"NSW"},{"NAME":"Bawley Point","POSTCODE":2539,"LATITUDE":-35.5119,"LONGITUDE":150.3786,"STATE_NAME":"NSW"},{"NAME":"Baxters Ridge","POSTCODE":2422,"LATITUDE":-31.7131,"LONGITUDE":151.9049,"STATE_NAME":"NSW"},{"NAME":"Bayview","POSTCODE":2104,"LATITUDE":-33.6595,"LONGITUDE":151.289,"STATE_NAME":"NSW"},{"NAME":"Beacon Hill","POSTCODE":2100,"LATITUDE":-33.7522,"LONGITUDE":151.2593,"STATE_NAME":"NSW"},{"NAME":"Beaconsfield","POSTCODE":2015,"LATITUDE":-33.9114,"LONGITUDE":151.2004,"STATE_NAME":"NSW"},{"NAME":"Bean Creek","POSTCODE":2469,"LATITUDE":-28.5862,"LONGITUDE":152.581,"STATE_NAME":"NSW"},{"NAME":"Bearbong","POSTCODE":2827,"LATITUDE":-31.6639,"LONGITUDE":148.8929,"STATE_NAME":"NSW"},{"NAME":"Beaumont","POSTCODE":2577,"LATITUDE":-34.7797,"LONGITUDE":150.5749,"STATE_NAME":"NSW"},{"NAME":"Beaumont Hills","POSTCODE":2155,"LATITUDE":-33.6978,"LONGITUDE":150.9408,"STATE_NAME":"NSW"},{"NAME":"Beckom","POSTCODE":2665,"LATITUDE":-34.3564,"LONGITUDE":147.006,"STATE_NAME":"NSW"},{"NAME":"Bective","POSTCODE":2340,"LATITUDE":-31.0041,"LONGITUDE":150.727,"STATE_NAME":"NSW"},{"NAME":"Bectric","POSTCODE":2665,"LATITUDE":-34.5038,"LONGITUDE":147.2677,"STATE_NAME":"NSW"},{"NAME":"Bedgerabong","POSTCODE":2871,"LATITUDE":-33.3091,"LONGITUDE":147.7104,"STATE_NAME":"NSW"},{"NAME":"Beechwood","POSTCODE":2446,"LATITUDE":-31.4452,"LONGITUDE":152.657,"STATE_NAME":"NSW"},{"NAME":"Beecroft","POSTCODE":2119,"LATITUDE":-33.7536,"LONGITUDE":151.0611,"STATE_NAME":"NSW"},{"NAME":"Beecroft Peninsula","POSTCODE":2540,"LATITUDE":-35.0518,"LONGITUDE":150.8084,"STATE_NAME":"NSW"},{"NAME":"Beelbangera","POSTCODE":2680,"LATITUDE":-34.233,"LONGITUDE":146.1072,"STATE_NAME":"NSW"},{"NAME":"Beemunnel","POSTCODE":2824,"LATITUDE":-31.672,"LONGITUDE":147.8507,"STATE_NAME":"NSW"},{"NAME":"Bega","POSTCODE":2550,"LATITUDE":-36.6849,"LONGITUDE":149.8424,"STATE_NAME":"NSW"},{"NAME":"Belanglo","POSTCODE":2577,"LATITUDE":-34.5126,"LONGITUDE":150.2224,"STATE_NAME":"NSW"},{"NAME":"Belbora","POSTCODE":2422,"LATITUDE":-31.9793,"LONGITUDE":152.1729,"STATE_NAME":"NSW"},{"NAME":"Belfield","POSTCODE":2191,"LATITUDE":-33.9045,"LONGITUDE":151.0856,"STATE_NAME":"NSW"},{"NAME":"Belford","POSTCODE":2335,"LATITUDE":-32.6754,"LONGITUDE":151.2844,"STATE_NAME":"NSW"},{"NAME":"Belfrayden","POSTCODE":2650,"LATITUDE":-35.1167,"LONGITUDE":147.0551,"STATE_NAME":"NSW"},{"NAME":"Belgravia","POSTCODE":2800,"LATITUDE":-33.1074,"LONGITUDE":149.0298,"STATE_NAME":"NSW"},{"NAME":"Belimbla Park","POSTCODE":2570,"LATITUDE":-34.0845,"LONGITUDE":150.5384,"STATE_NAME":"NSW"},{"NAME":"Bell","POSTCODE":2786,"LATITUDE":-33.5003,"LONGITUDE":150.3166,"STATE_NAME":"NSW"},{"NAME":"Bella Vista","POSTCODE":2153,"LATITUDE":-33.7398,"LONGITUDE":150.9523,"STATE_NAME":"NSW"},{"NAME":"Bellambi","POSTCODE":2518,"LATITUDE":-34.3693,"LONGITUDE":150.9194,"STATE_NAME":"NSW"},{"NAME":"Bellangry","POSTCODE":2446,"LATITUDE":-31.3264,"LONGITUDE":152.582,"STATE_NAME":"NSW"},{"NAME":"Bellata","POSTCODE":2397,"LATITUDE":-29.9206,"LONGITUDE":149.7925,"STATE_NAME":"NSW"},{"NAME":"Bellawongarah","POSTCODE":2535,"LATITUDE":-34.7591,"LONGITUDE":150.6122,"STATE_NAME":"NSW"},{"NAME":"Bellbird","POSTCODE":2325,"LATITUDE":-32.8548,"LONGITUDE":151.318,"STATE_NAME":"NSW"},{"NAME":"Bellbird Heights","POSTCODE":2325,"LATITUDE":-32.8483,"LONGITUDE":151.3307,"STATE_NAME":"NSW"},{"NAME":"Bellbrook","POSTCODE":2440,"LATITUDE":-30.7365,"LONGITUDE":152.4837,"STATE_NAME":"NSW"},{"NAME":"Bellevue Hill","POSTCODE":2023,"LATITUDE":-33.8796,"LONGITUDE":151.2549,"STATE_NAME":"NSW"},{"NAME":"Bellimbopinni","POSTCODE":2440,"LATITUDE":-31.0042,"LONGITUDE":152.9017,"STATE_NAME":"NSW"},{"NAME":"Bellingen","POSTCODE":2454,"LATITUDE":-30.454,"LONGITUDE":152.9078,"STATE_NAME":"NSW"},{"NAME":"Bellmount Forest","POSTCODE":2581,"LATITUDE":-34.8975,"LONGITUDE":149.2669,"STATE_NAME":"NSW"},{"NAME":"Belltrees","POSTCODE":2337,"LATITUDE":-31.9509,"LONGITUDE":151.1127,"STATE_NAME":"NSW"},{"NAME":"Belmont","POSTCODE":2280,"LATITUDE":-33.0319,"LONGITUDE":151.6734,"STATE_NAME":"NSW"},{"NAME":"Belmont North","POSTCODE":2280,"LATITUDE":-33.0135,"LONGITUDE":151.6725,"STATE_NAME":"NSW"},{"NAME":"Belmont South","POSTCODE":2280,"LATITUDE":-33.0533,"LONGITUDE":151.6601,"STATE_NAME":"NSW"},{"NAME":"Belmore","POSTCODE":2192,"LATITUDE":-33.9191,"LONGITUDE":151.0881,"STATE_NAME":"NSW"},{"NAME":"Belmore River","POSTCODE":2440,"LATITUDE":-31.0839,"LONGITUDE":152.9737,"STATE_NAME":"NSW"},{"NAME":"Beloka","POSTCODE":2628,"LATITUDE":-36.5493,"LONGITUDE":148.7026,"STATE_NAME":"NSW"},{"NAME":"Belowra","POSTCODE":2545,"LATITUDE":-36.1072,"LONGITUDE":149.6736,"STATE_NAME":"NSW"},{"NAME":"Belrose","POSTCODE":2085,"LATITUDE":-33.7215,"LONGITUDE":151.2096,"STATE_NAME":"NSW"},{"NAME":"Bemboka","POSTCODE":2550,"LATITUDE":-36.6157,"LONGITUDE":149.5312,"STATE_NAME":"NSW"},{"NAME":"Ben Bullen","POSTCODE":2790,"LATITUDE":-33.2331,"LONGITUDE":150.0189,"STATE_NAME":"NSW"},{"NAME":"Ben Lomond","POSTCODE":2365,"LATITUDE":-30.0059,"LONGITUDE":151.608,"STATE_NAME":"NSW"},{"NAME":"Benandarah","POSTCODE":2536,"LATITUDE":-35.61,"LONGITUDE":150.2154,"STATE_NAME":"NSW"},{"NAME":"Bendalong","POSTCODE":2539,"LATITUDE":-35.2322,"LONGITUDE":150.5019,"STATE_NAME":"NSW"},{"NAME":"Bendemeer","POSTCODE":2355,"LATITUDE":-30.8073,"LONGITUDE":151.1775,"STATE_NAME":"NSW"},{"NAME":"Bendick Murrell","POSTCODE":2803,"LATITUDE":-34.1866,"LONGITUDE":148.4616,"STATE_NAME":"NSW"},{"NAME":"Bendolba","POSTCODE":2420,"LATITUDE":-32.3508,"LONGITUDE":151.731,"STATE_NAME":"NSW"},{"NAME":"Bendoura","POSTCODE":2622,"LATITUDE":-35.5428,"LONGITUDE":149.6784,"STATE_NAME":"NSW"},{"NAME":"Benerembah","POSTCODE":2680,"LATITUDE":-34.4918,"LONGITUDE":145.8285,"STATE_NAME":"NSW"},{"NAME":"Bengalla","POSTCODE":2333,"LATITUDE":-32.2888,"LONGITUDE":150.8168,"STATE_NAME":"NSW"},{"NAME":"Bennetts Green","POSTCODE":2290,"LATITUDE":-32.9995,"LONGITUDE":151.698,"STATE_NAME":"NSW"},{"NAME":"Bensville","POSTCODE":2251,"LATITUDE":-33.4969,"LONGITUDE":151.393,"STATE_NAME":"NSW"},{"NAME":"Bentley","POSTCODE":2480,"LATITUDE":-28.7247,"LONGITUDE":153.0951,"STATE_NAME":"NSW"},{"NAME":"Berala","POSTCODE":2141,"LATITUDE":-33.8745,"LONGITUDE":151.0335,"STATE_NAME":"NSW"},{"NAME":"Berambing","POSTCODE":2758,"LATITUDE":-33.5316,"LONGITUDE":150.4488,"STATE_NAME":"NSW"},{"NAME":"Beresfield","POSTCODE":2322,"LATITUDE":-32.8028,"LONGITUDE":151.6429,"STATE_NAME":"NSW"},{"NAME":"Bergalia","POSTCODE":2537,"LATITUDE":-35.9812,"LONGITUDE":150.0929,"STATE_NAME":"NSW"},{"NAME":"Berkeley","POSTCODE":2506,"LATITUDE":-34.4815,"LONGITUDE":150.8429,"STATE_NAME":"NSW"},{"NAME":"Berkeley Vale","POSTCODE":2261,"LATITUDE":-33.3293,"LONGITUDE":151.4253,"STATE_NAME":"NSW"},{"NAME":"Berkshire Park","POSTCODE":2765,"LATITUDE":-33.6684,"LONGITUDE":150.7791,"STATE_NAME":"NSW"},{"NAME":"Berlang","POSTCODE":2622,"LATITUDE":-35.6754,"LONGITUDE":149.6861,"STATE_NAME":"NSW"},{"NAME":"Bermagui","POSTCODE":2546,"LATITUDE":-36.4269,"LONGITUDE":150.0432,"STATE_NAME":"NSW"},{"NAME":"Berowra","POSTCODE":2081,"LATITUDE":-33.628,"LONGITUDE":151.152,"STATE_NAME":"NSW"},{"NAME":"Berowra Creek","POSTCODE":2082,"LATITUDE":-33.5251,"LONGITUDE":151.1372,"STATE_NAME":"NSW"},{"NAME":"Berowra Heights","POSTCODE":2082,"LATITUDE":-33.6015,"LONGITUDE":151.1374,"STATE_NAME":"NSW"},{"NAME":"Berowra Waters","POSTCODE":2082,"LATITUDE":-33.6034,"LONGITUDE":151.1202,"STATE_NAME":"NSW"},{"NAME":"Berrambool","POSTCODE":2548,"LATITUDE":-36.8808,"LONGITUDE":149.9102,"STATE_NAME":"NSW"},{"NAME":"Berrara","POSTCODE":2540,"LATITUDE":-35.2063,"LONGITUDE":150.5516,"STATE_NAME":"NSW"},{"NAME":"Berremangra","POSTCODE":2582,"LATITUDE":-34.7984,"LONGITUDE":148.4707,"STATE_NAME":"NSW"},{"NAME":"Berrico","POSTCODE":2422,"LATITUDE":-32.0895,"LONGITUDE":151.7919,"STATE_NAME":"NSW"},{"NAME":"Berridale","POSTCODE":2628,"LATITUDE":-36.3782,"LONGITUDE":148.8368,"STATE_NAME":"NSW"},{"NAME":"Berrigal","POSTCODE":2390,"LATITUDE":-29.9534,"LONGITUDE":150.1232,"STATE_NAME":"NSW"},{"NAME":"Berrigan","POSTCODE":2712,"LATITUDE":-35.6503,"LONGITUDE":145.8283,"STATE_NAME":"NSW"},{"NAME":"Berrilee","POSTCODE":2159,"LATITUDE":-33.6051,"LONGITUDE":151.1049,"STATE_NAME":"NSW"},{"NAME":"Berrima","POSTCODE":2577,"LATITUDE":-34.4678,"LONGITUDE":150.3311,"STATE_NAME":"NSW"},{"NAME":"Berringer Lake","POSTCODE":2539,"LATITUDE":-35.2515,"LONGITUDE":150.5044,"STATE_NAME":"NSW"},{"NAME":"Berry","POSTCODE":2535,"LATITUDE":-34.7994,"LONGITUDE":150.7325,"STATE_NAME":"NSW"},{"NAME":"Berry Jerry","POSTCODE":2701,"LATITUDE":-34.7106,"LONGITUDE":147.2437,"STATE_NAME":"NSW"},{"NAME":"Berry Mountain","POSTCODE":2535,"LATITUDE":-34.7658,"LONGITUDE":150.6504,"STATE_NAME":"NSW"},{"NAME":"Berry Park","POSTCODE":2321,"LATITUDE":-32.7424,"LONGITUDE":151.6612,"STATE_NAME":"NSW"},{"NAME":"Berthong","POSTCODE":2594,"LATITUDE":-34.3894,"LONGITUDE":148.0898,"STATE_NAME":"NSW"},{"NAME":"Beryl","POSTCODE":2852,"LATITUDE":-32.3225,"LONGITUDE":149.4601,"STATE_NAME":"NSW"},{"NAME":"Bethungra","POSTCODE":2590,"LATITUDE":-34.7658,"LONGITUDE":147.8263,"STATE_NAME":"NSW"},{"NAME":"Bevendale","POSTCODE":2581,"LATITUDE":-34.5025,"LONGITUDE":149.0845,"STATE_NAME":"NSW"},{"NAME":"Beverley Park","POSTCODE":2217,"LATITUDE":-33.9772,"LONGITUDE":151.1305,"STATE_NAME":"NSW"},{"NAME":"Beverly Hills","POSTCODE":2209,"LATITUDE":-33.9471,"LONGITUDE":151.0783,"STATE_NAME":"NSW"},{"NAME":"Bewong","POSTCODE":2540,"LATITUDE":-35.082,"LONGITUDE":150.5346,"STATE_NAME":"NSW"},{"NAME":"Bexhill","POSTCODE":2480,"LATITUDE":-28.7558,"LONGITUDE":153.3546,"STATE_NAME":"NSW"},{"NAME":"Bexley","POSTCODE":2207,"LATITUDE":-33.9523,"LONGITUDE":151.1179,"STATE_NAME":"NSW"},{"NAME":"Bexley North","POSTCODE":2207,"LATITUDE":-33.9425,"LONGITUDE":151.1153,"STATE_NAME":"NSW"},{"NAME":"Biala","POSTCODE":2581,"LATITUDE":-34.594,"LONGITUDE":149.2635,"STATE_NAME":"NSW"},{"NAME":"Bibbenluke","POSTCODE":2632,"LATITUDE":-36.8069,"LONGITUDE":149.3217,"STATE_NAME":"NSW"},{"NAME":"Bickley Vale","POSTCODE":2570,"LATITUDE":-34.0792,"LONGITUDE":150.6598,"STATE_NAME":"NSW"},{"NAME":"Biddon","POSTCODE":2827,"LATITUDE":-31.553,"LONGITUDE":148.7947,"STATE_NAME":"NSW"},{"NAME":"Bidgeemia","POSTCODE":2642,"LATITUDE":-35.4,"LONGITUDE":146.4512,"STATE_NAME":"NSW"},{"NAME":"Bidwill","POSTCODE":2770,"LATITUDE":-33.73,"LONGITUDE":150.8218,"STATE_NAME":"NSW"},{"NAME":"Bielsdown Hills","POSTCODE":2453,"LATITUDE":-30.3718,"LONGITUDE":152.6671,"STATE_NAME":"NSW"},{"NAME":"Big Hill","POSTCODE":2579,"LATITUDE":-34.544,"LONGITUDE":149.9958,"STATE_NAME":"NSW"},{"NAME":"Big Jacks Creek","POSTCODE":2339,"LATITUDE":-31.7646,"LONGITUDE":150.6104,"STATE_NAME":"NSW"},{"NAME":"Big Ridge","POSTCODE":2330,"LATITUDE":-32.5733,"LONGITUDE":151.2258,"STATE_NAME":"NSW"},{"NAME":"Big Springs","POSTCODE":2650,"LATITUDE":-35.3524,"LONGITUDE":147.408,"STATE_NAME":"NSW"},{"NAME":"Bigga","POSTCODE":2583,"LATITUDE":-34.0522,"LONGITUDE":149.1319,"STATE_NAME":"NSW"},{"NAME":"Bilambil","POSTCODE":2486,"LATITUDE":-28.2244,"LONGITUDE":153.4615,"STATE_NAME":"NSW"},{"NAME":"Bilambil Heights","POSTCODE":2486,"LATITUDE":-28.2101,"LONGITUDE":153.4841,"STATE_NAME":"NSW"},{"NAME":"Bilbul","POSTCODE":2680,"LATITUDE":-34.2839,"LONGITUDE":146.1588,"STATE_NAME":"NSW"},{"NAME":"Bilgola Plateau","POSTCODE":2107,"LATITUDE":-33.6448,"LONGITUDE":151.3123,"STATE_NAME":"NSW"},{"NAME":"Billeroy","POSTCODE":2829,"LATITUDE":-30.613,"LONGITUDE":148.4532,"STATE_NAME":"NSW"},{"NAME":"Billilingra","POSTCODE":2630,"LATITUDE":-36.0159,"LONGITUDE":149.1121,"STATE_NAME":"NSW"},{"NAME":"Billimari","POSTCODE":2804,"LATITUDE":-33.6757,"LONGITUDE":148.6164,"STATE_NAME":"NSW"},{"NAME":"Billinudgel","POSTCODE":2483,"LATITUDE":-28.5062,"LONGITUDE":153.5136,"STATE_NAME":"NSW"},{"NAME":"Billys Creek","POSTCODE":2453,"LATITUDE":-30.1662,"LONGITUDE":152.5912,"STATE_NAME":"NSW"},{"NAME":"Billywillinga","POSTCODE":2795,"LATITUDE":-33.276,"LONGITUDE":149.4374,"STATE_NAME":"NSW"},{"NAME":"Bilpin","POSTCODE":2758,"LATITUDE":-33.4413,"LONGITUDE":150.5551,"STATE_NAME":"NSW"},{"NAME":"Bimberi","POSTCODE":2611,"LATITUDE":-35.5827,"LONGITUDE":148.6968,"STATE_NAME":"NSW"},{"NAME":"Bimbi","POSTCODE":2810,"LATITUDE":-33.9728,"LONGITUDE":147.9372,"STATE_NAME":"NSW"},{"NAME":"Bimbimbie","POSTCODE":2536,"LATITUDE":-35.8519,"LONGITUDE":150.1151,"STATE_NAME":"NSW"},{"NAME":"Binalong","POSTCODE":2584,"LATITUDE":-34.6875,"LONGITUDE":148.6674,"STATE_NAME":"NSW"},{"NAME":"Binda","POSTCODE":2583,"LATITUDE":-34.3076,"LONGITUDE":149.3011,"STATE_NAME":"NSW"},{"NAME":"Bindera","POSTCODE":2422,"LATITUDE":-32.0242,"LONGITUDE":151.8249,"STATE_NAME":"NSW"},{"NAME":"Bingara","POSTCODE":2404,"LATITUDE":-29.8341,"LONGITUDE":150.5494,"STATE_NAME":"NSW"},{"NAME":"Bingeebeebra Creek","POSTCODE":2469,"LATITUDE":-28.8076,"LONGITUDE":152.7763,"STATE_NAME":"NSW"},{"NAME":"Bingie","POSTCODE":2537,"LATITUDE":-36.0158,"LONGITUDE":150.1452,"STATE_NAME":"NSW"},{"NAME":"Bingleburra","POSTCODE":2311,"LATITUDE":-32.3641,"LONGITUDE":151.6159,"STATE_NAME":"NSW"},{"NAME":"Biniguy","POSTCODE":2399,"LATITUDE":-29.5818,"LONGITUDE":150.1369,"STATE_NAME":"NSW"},{"NAME":"Binjura","POSTCODE":2630,"LATITUDE":-36.1743,"LONGITUDE":149.108,"STATE_NAME":"NSW"},{"NAME":"Binna Burra","POSTCODE":2479,"LATITUDE":-28.7129,"LONGITUDE":153.4907,"STATE_NAME":"NSW"},{"NAME":"Binnaway","POSTCODE":2395,"LATITUDE":-31.5697,"LONGITUDE":149.3965,"STATE_NAME":"NSW"},{"NAME":"Binya","POSTCODE":2665,"LATITUDE":-34.1904,"LONGITUDE":146.3138,"STATE_NAME":"NSW"},{"NAME":"Birchgrove","POSTCODE":2041,"LATITUDE":-33.8507,"LONGITUDE":151.1818,"STATE_NAME":"NSW"},{"NAME":"Birdwood","POSTCODE":2446,"LATITUDE":-31.3569,"LONGITUDE":152.317,"STATE_NAME":"NSW"},{"NAME":"Birganbigil","POSTCODE":2710,"LATITUDE":-35.5182,"LONGITUDE":145.1783,"STATE_NAME":"NSW"},{"NAME":"Birmingham Gardens","POSTCODE":2287,"LATITUDE":-32.8928,"LONGITUDE":151.6903,"STATE_NAME":"NSW"},{"NAME":"Birriwa","POSTCODE":2844,"LATITUDE":-32.1177,"LONGITUDE":149.4798,"STATE_NAME":"NSW"},{"NAME":"Birrong","POSTCODE":2143,"LATITUDE":-33.8918,"LONGITUDE":151.021,"STATE_NAME":"NSW"},{"NAME":"Bishops Bridge","POSTCODE":2326,"LATITUDE":-32.7473,"LONGITUDE":151.4653,"STATE_NAME":"NSW"},{"NAME":"Bithramere","POSTCODE":2340,"LATITUDE":-31.132,"LONGITUDE":150.779,"STATE_NAME":"NSW"},{"NAME":"Black Creek","POSTCODE":2729,"LATITUDE":-35.3229,"LONGITUDE":148.0353,"STATE_NAME":"NSW"},{"NAME":"Black Creek","POSTCODE":2439,"LATITUDE":-31.5816,"LONGITUDE":152.6281,"STATE_NAME":"NSW"},{"NAME":"Black Head","POSTCODE":2430,"LATITUDE":-32.0713,"LONGITUDE":152.5355,"STATE_NAME":"NSW"},{"NAME":"Black Hill","POSTCODE":2322,"LATITUDE":-32.8192,"LONGITUDE":151.6206,"STATE_NAME":"NSW"},{"NAME":"Black Hollow","POSTCODE":2828,"LATITUDE":-31.0898,"LONGITUDE":148.8649,"STATE_NAME":"NSW"},{"NAME":"Black Mountain","POSTCODE":2365,"LATITUDE":-30.3291,"LONGITUDE":151.695,"STATE_NAME":"NSW"},{"NAME":"Black Range","POSTCODE":2550,"LATITUDE":-36.734,"LONGITUDE":149.8434,"STATE_NAME":"NSW"},{"NAME":"Black Springs","POSTCODE":2787,"LATITUDE":-33.856,"LONGITUDE":149.7222,"STATE_NAME":"NSW"},{"NAME":"Blackalls Park","POSTCODE":2283,"LATITUDE":-32.9979,"LONGITUDE":151.5784,"STATE_NAME":"NSW"},{"NAME":"Blackbutt","POSTCODE":2529,"LATITUDE":-34.5713,"LONGITUDE":150.8329,"STATE_NAME":"NSW"},{"NAME":"Blackett","POSTCODE":2770,"LATITUDE":-33.7383,"LONGITUDE":150.8149,"STATE_NAME":"NSW"},{"NAME":"Blackheath","POSTCODE":2785,"LATITUDE":-33.639,"LONGITUDE":150.2834,"STATE_NAME":"NSW"},{"NAME":"Blackmans Flat","POSTCODE":2790,"LATITUDE":-33.3463,"LONGITUDE":150.0583,"STATE_NAME":"NSW"},{"NAME":"Blackmans Point","POSTCODE":2444,"LATITUDE":-31.3913,"LONGITUDE":152.8317,"STATE_NAME":"NSW"},{"NAME":"Blacksmiths","POSTCODE":2281,"LATITUDE":-33.0765,"LONGITUDE":151.6547,"STATE_NAME":"NSW"},{"NAME":"Blacktown","POSTCODE":2148,"LATITUDE":-33.7777,"LONGITUDE":150.9031,"STATE_NAME":"NSW"},{"NAME":"Blackville","POSTCODE":2343,"LATITUDE":-31.618,"LONGITUDE":150.2473,"STATE_NAME":"NSW"},{"NAME":"Blackwall","POSTCODE":2256,"LATITUDE":-33.5049,"LONGITUDE":151.3349,"STATE_NAME":"NSW"},{"NAME":"Blair Athol","POSTCODE":2560,"LATITUDE":-34.062,"LONGITUDE":150.8031,"STATE_NAME":"NSW"},{"NAME":"Blairmount","POSTCODE":2559,"LATITUDE":-34.0512,"LONGITUDE":150.7947,"STATE_NAME":"NSW"},{"NAME":"Blakebrook","POSTCODE":2480,"LATITUDE":-28.7694,"LONGITUDE":153.2323,"STATE_NAME":"NSW"},{"NAME":"Blakehurst","POSTCODE":2221,"LATITUDE":-33.9911,"LONGITUDE":151.1103,"STATE_NAME":"NSW"},{"NAME":"Blakney Creek","POSTCODE":2581,"LATITUDE":-34.6387,"LONGITUDE":149.0365,"STATE_NAME":"NSW"},{"NAME":"Bland","POSTCODE":2721,"LATITUDE":-34.0238,"LONGITUDE":147.6304,"STATE_NAME":"NSW"},{"NAME":"Blandford","POSTCODE":2338,"LATITUDE":-31.7522,"LONGITUDE":150.8944,"STATE_NAME":"NSW"},{"NAME":"Blaxland","POSTCODE":2774,"LATITUDE":-33.746,"LONGITUDE":150.6171,"STATE_NAME":"NSW"},{"NAME":"Blaxlands Creek","POSTCODE":2460,"LATITUDE":-29.893,"LONGITUDE":152.7996,"STATE_NAME":"NSW"},{"NAME":"Blaxlands Ridge","POSTCODE":2758,"LATITUDE":-33.4706,"LONGITUDE":150.8085,"STATE_NAME":"NSW"},{"NAME":"Blayney","POSTCODE":2799,"LATITUDE":-33.5378,"LONGITUDE":149.2545,"STATE_NAME":"NSW"},{"NAME":"Bligh Park","POSTCODE":2756,"LATITUDE":-33.6384,"LONGITUDE":150.798,"STATE_NAME":"NSW"},{"NAME":"Blighty","POSTCODE":2713,"LATITUDE":-35.5959,"LONGITUDE":145.3072,"STATE_NAME":"NSW"},{"NAME":"Blowering","POSTCODE":2720,"LATITUDE":-35.5197,"LONGITUDE":148.255,"STATE_NAME":"NSW"},{"NAME":"Blue Bay","POSTCODE":2261,"LATITUDE":-33.3546,"LONGITUDE":151.5008,"STATE_NAME":"NSW"},{"NAME":"Blue Haven","POSTCODE":2262,"LATITUDE":-33.2114,"LONGITUDE":151.5046,"STATE_NAME":"NSW"},{"NAME":"Blue Knob","POSTCODE":2480,"LATITUDE":-28.5485,"LONGITUDE":153.1927,"STATE_NAME":"NSW"},{"NAME":"Blue Nobby","POSTCODE":2408,"LATITUDE":-29.0601,"LONGITUDE":150.6156,"STATE_NAME":"NSW"},{"NAME":"Blue Vale","POSTCODE":2380,"LATITUDE":-30.8275,"LONGITUDE":150.239,"STATE_NAME":"NSW"},{"NAME":"Blueys Beach","POSTCODE":2428,"LATITUDE":-32.3538,"LONGITUDE":152.5313,"STATE_NAME":"NSW"},{"NAME":"Boambee","POSTCODE":2450,"LATITUDE":-30.3328,"LONGITUDE":153.0591,"STATE_NAME":"NSW"},{"NAME":"Boambee East","POSTCODE":2452,"LATITUDE":-30.3456,"LONGITUDE":153.0759,"STATE_NAME":"NSW"},{"NAME":"Boambolo","POSTCODE":2582,"LATITUDE":-34.9793,"LONGITUDE":148.8844,"STATE_NAME":"NSW"},{"NAME":"Boat Harbour","POSTCODE":2316,"LATITUDE":-32.7845,"LONGITUDE":152.1119,"STATE_NAME":"NSW"},{"NAME":"Boat Harbour","POSTCODE":2480,"LATITUDE":-28.7771,"LONGITUDE":153.3751,"STATE_NAME":"NSW"},{"NAME":"Bobadah","POSTCODE":2877,"LATITUDE":-32.2882,"LONGITUDE":146.726,"STATE_NAME":"NSW"},{"NAME":"Bobin","POSTCODE":2429,"LATITUDE":-31.6988,"LONGITUDE":152.2856,"STATE_NAME":"NSW"},{"NAME":"Bobs Creek","POSTCODE":2439,"LATITUDE":-31.597,"LONGITUDE":152.7524,"STATE_NAME":"NSW"},{"NAME":"Bobs Farm","POSTCODE":2316,"LATITUDE":-32.7782,"LONGITUDE":152.0024,"STATE_NAME":"NSW"},{"NAME":"Bobundara","POSTCODE":2630,"LATITUDE":-36.4617,"LONGITUDE":148.9697,"STATE_NAME":"NSW"},{"NAME":"Boco","POSTCODE":2631,"LATITUDE":-36.6145,"LONGITUDE":149.1427,"STATE_NAME":"NSW"},{"NAME":"Bocoble","POSTCODE":2850,"LATITUDE":-32.8034,"LONGITUDE":149.733,"STATE_NAME":"NSW"},{"NAME":"Bocobra","POSTCODE":2865,"LATITUDE":-33.0851,"LONGITUDE":148.5372,"STATE_NAME":"NSW"},{"NAME":"Bodalla","POSTCODE":2545,"LATITUDE":-36.0969,"LONGITUDE":150.0096,"STATE_NAME":"NSW"},{"NAME":"Bodangora","POSTCODE":2820,"LATITUDE":-32.4322,"LONGITUDE":149.057,"STATE_NAME":"NSW"},{"NAME":"Boeill Creek","POSTCODE":2739,"LATITUDE":-34.1567,"LONGITUDE":142.0985,"STATE_NAME":"NSW"},{"NAME":"Bogan","POSTCODE":2826,"LATITUDE":-32.0288,"LONGITUDE":147.4794,"STATE_NAME":"NSW"},{"NAME":"Bogan Gate","POSTCODE":2876,"LATITUDE":-33.09,"LONGITUDE":147.7679,"STATE_NAME":"NSW"},{"NAME":"Bogangar","POSTCODE":2488,"LATITUDE":-28.3289,"LONGITUDE":153.5579,"STATE_NAME":"NSW"},{"NAME":"Bogee","POSTCODE":2849,"LATITUDE":-32.9826,"LONGITUDE":150.1199,"STATE_NAME":"NSW"},{"NAME":"Boggabilla","POSTCODE":2409,"LATITUDE":-28.7158,"LONGITUDE":150.1761,"STATE_NAME":"NSW"},{"NAME":"Boggabri","POSTCODE":2382,"LATITUDE":-30.6905,"LONGITUDE":150.0056,"STATE_NAME":"NSW"},{"NAME":"Bogong Peaks Wilderness","POSTCODE":2720,"LATITUDE":-35.5214,"LONGITUDE":148.3826,"STATE_NAME":"NSW"},{"NAME":"Bohena Creek","POSTCODE":2390,"LATITUDE":-30.4252,"LONGITUDE":149.637,"STATE_NAME":"NSW"},{"NAME":"Bohnock","POSTCODE":2430,"LATITUDE":-31.9461,"LONGITUDE":152.5666,"STATE_NAME":"NSW"},{"NAME":"Bolaro","POSTCODE":2629,"LATITUDE":-35.9196,"LONGITUDE":148.8527,"STATE_NAME":"NSW"},{"NAME":"Bolivia","POSTCODE":2372,"LATITUDE":-29.2722,"LONGITUDE":151.8806,"STATE_NAME":"NSW"},{"NAME":"Bolong","POSTCODE":2540,"LATITUDE":-34.8371,"LONGITUDE":150.6435,"STATE_NAME":"NSW"},{"NAME":"Bolton Point","POSTCODE":2283,"LATITUDE":-32.9984,"LONGITUDE":151.611,"STATE_NAME":"NSW"},{"NAME":"Bolwarra","POSTCODE":2320,"LATITUDE":-32.7107,"LONGITUDE":151.5751,"STATE_NAME":"NSW"},{"NAME":"Bolwarra Heights","POSTCODE":2320,"LATITUDE":-32.6914,"LONGITUDE":151.5856,"STATE_NAME":"NSW"},{"NAME":"Bom Bom","POSTCODE":2460,"LATITUDE":-29.7756,"LONGITUDE":152.9645,"STATE_NAME":"NSW"},{"NAME":"Bomaderry","POSTCODE":2541,"LATITUDE":-34.8478,"LONGITUDE":150.6044,"STATE_NAME":"NSW"},{"NAME":"Bombah Point","POSTCODE":2423,"LATITUDE":-32.5001,"LONGITUDE":152.2713,"STATE_NAME":"NSW"},{"NAME":"Bombala","POSTCODE":2632,"LATITUDE":-36.8899,"LONGITUDE":149.2437,"STATE_NAME":"NSW"},{"NAME":"Bombay","POSTCODE":2622,"LATITUDE":-35.4383,"LONGITUDE":149.6463,"STATE_NAME":"NSW"},{"NAME":"Bombira","POSTCODE":2850,"LATITUDE":-32.5733,"LONGITUDE":149.6047,"STATE_NAME":"NSW"},{"NAME":"Bombo","POSTCODE":2533,"LATITUDE":-34.6549,"LONGITUDE":150.849,"STATE_NAME":"NSW"},{"NAME":"Bombowlee","POSTCODE":2720,"LATITUDE":-35.2617,"LONGITUDE":148.2431,"STATE_NAME":"NSW"},{"NAME":"Bombowlee Creek","POSTCODE":2720,"LATITUDE":-35.274,"LONGITUDE":148.3259,"STATE_NAME":"NSW"},{"NAME":"Bomen","POSTCODE":2650,"LATITUDE":-35.0611,"LONGITUDE":147.4323,"STATE_NAME":"NSW"},{"NAME":"Bonalbo","POSTCODE":2469,"LATITUDE":-28.7176,"LONGITUDE":152.6185,"STATE_NAME":"NSW"},{"NAME":"Bondi","POSTCODE":2026,"LATITUDE":-33.893,"LONGITUDE":151.2634,"STATE_NAME":"NSW"},{"NAME":"Bondi Beach","POSTCODE":2026,"LATITUDE":-33.8909,"LONGITUDE":151.2738,"STATE_NAME":"NSW"},{"NAME":"Bondi Forest","POSTCODE":2632,"LATITUDE":-37.152,"LONGITUDE":149.1829,"STATE_NAME":"NSW"},{"NAME":"Bondi Junction","POSTCODE":2022,"LATITUDE":-33.8929,"LONGITUDE":151.2496,"STATE_NAME":"NSW"},{"NAME":"Bonnells Bay","POSTCODE":2264,"LATITUDE":-33.1097,"LONGITUDE":151.5218,"STATE_NAME":"NSW"},{"NAME":"Bonnet Bay","POSTCODE":2226,"LATITUDE":-34.01,"LONGITUDE":151.0533,"STATE_NAME":"NSW"},{"NAME":"Bonny Hills","POSTCODE":2445,"LATITUDE":-31.5779,"LONGITUDE":152.8176,"STATE_NAME":"NSW"},{"NAME":"Bonnyrigg","POSTCODE":2177,"LATITUDE":-33.8933,"LONGITUDE":150.8903,"STATE_NAME":"NSW"},{"NAME":"Bonnyrigg Heights","POSTCODE":2177,"LATITUDE":-33.891,"LONGITUDE":150.8704,"STATE_NAME":"NSW"},{"NAME":"Bonshaw","POSTCODE":2361,"LATITUDE":-29.0243,"LONGITUDE":151.2311,"STATE_NAME":"NSW"},{"NAME":"Booerie Creek","POSTCODE":2480,"LATITUDE":-28.7767,"LONGITUDE":153.2542,"STATE_NAME":"NSW"},{"NAME":"Book Book","POSTCODE":2650,"LATITUDE":-35.34,"LONGITUDE":147.5533,"STATE_NAME":"NSW"},{"NAME":"Booker Bay","POSTCODE":2257,"LATITUDE":-33.5138,"LONGITUDE":151.3475,"STATE_NAME":"NSW"},{"NAME":"Bookham","POSTCODE":2582,"LATITUDE":-34.8435,"LONGITUDE":148.6336,"STATE_NAME":"NSW"},{"NAME":"Bookookoorara","POSTCODE":2372,"LATITUDE":-28.7831,"LONGITUDE":152.1007,"STATE_NAME":"NSW"},{"NAME":"Bookram","POSTCODE":2460,"LATITUDE":-29.6908,"LONGITUDE":153.2429,"STATE_NAME":"NSW"},{"NAME":"Boolambayte","POSTCODE":2423,"LATITUDE":-32.3995,"LONGITUDE":152.275,"STATE_NAME":"NSW"},{"NAME":"Boolaroo","POSTCODE":2284,"LATITUDE":-32.9465,"LONGITUDE":151.6278,"STATE_NAME":"NSW"},{"NAME":"Boolcarroll","POSTCODE":2388,"LATITUDE":-30.0406,"LONGITUDE":149.4257,"STATE_NAME":"NSW"},{"NAME":"Booligal","POSTCODE":2711,"LATITUDE":-33.7321,"LONGITUDE":144.6735,"STATE_NAME":"NSW"},{"NAME":"Boolijah","POSTCODE":2540,"LATITUDE":-35.0587,"LONGITUDE":150.332,"STATE_NAME":"NSW"},{"NAME":"Boomanoomana","POSTCODE":2712,"LATITUDE":-35.8754,"LONGITUDE":145.8521,"STATE_NAME":"NSW"},{"NAME":"Boomerang Beach","POSTCODE":2428,"LATITUDE":-32.3408,"LONGITUDE":152.537,"STATE_NAME":"NSW"},{"NAME":"Boomey","POSTCODE":2866,"LATITUDE":-32.9715,"LONGITUDE":148.9601,"STATE_NAME":"NSW"},{"NAME":"Boomi","POSTCODE":2405,"LATITUDE":-28.7096,"LONGITUDE":149.6473,"STATE_NAME":"NSW"},{"NAME":"Boomi Creek","POSTCODE":2476,"LATITUDE":-28.4859,"LONGITUDE":152.5964,"STATE_NAME":"NSW"},{"NAME":"Boona Mount","POSTCODE":2877,"LATITUDE":-32.6293,"LONGITUDE":147.2599,"STATE_NAME":"NSW"},{"NAME":"Boonal","POSTCODE":2409,"LATITUDE":-28.7594,"LONGITUDE":150.5413,"STATE_NAME":"NSW"},{"NAME":"Boonoo Boonoo","POSTCODE":2372,"LATITUDE":-28.9105,"LONGITUDE":152.1179,"STATE_NAME":"NSW"},{"NAME":"Boorabee Park","POSTCODE":2480,"LATITUDE":-28.6766,"LONGITUDE":153.0552,"STATE_NAME":"NSW"},{"NAME":"Booragul","POSTCODE":2284,"LATITUDE":-32.9747,"LONGITUDE":151.6106,"STATE_NAME":"NSW"},{"NAME":"Booral","POSTCODE":2425,"LATITUDE":-32.4634,"LONGITUDE":151.9718,"STATE_NAME":"NSW"},{"NAME":"Boorga","POSTCODE":2652,"LATITUDE":-34.0209,"LONGITUDE":146.0169,"STATE_NAME":"NSW"},{"NAME":"Boorganna","POSTCODE":2429,"LATITUDE":-31.6216,"LONGITUDE":152.3857,"STATE_NAME":"NSW"},{"NAME":"Boorolong","POSTCODE":2350,"LATITUDE":-30.3569,"LONGITUDE":151.4673,"STATE_NAME":"NSW"},{"NAME":"Boorook","POSTCODE":2372,"LATITUDE":-28.7987,"LONGITUDE":152.2611,"STATE_NAME":"NSW"},{"NAME":"Boorooma","POSTCODE":2650,"LATITUDE":-35.0722,"LONGITUDE":147.3676,"STATE_NAME":"NSW"},{"NAME":"Booroorban","POSTCODE":2710,"LATITUDE":-34.856,"LONGITUDE":144.7364,"STATE_NAME":"NSW"},{"NAME":"Boorowa","POSTCODE":2586,"LATITUDE":-34.3669,"LONGITUDE":148.7465,"STATE_NAME":"NSW"},{"NAME":"Bootawa","POSTCODE":2430,"LATITUDE":-31.9224,"LONGITUDE":152.3552,"STATE_NAME":"NSW"},{"NAME":"Booti Booti","POSTCODE":2428,"LATITUDE":-32.3141,"LONGITUDE":152.5224,"STATE_NAME":"NSW"},{"NAME":"Booyong","POSTCODE":2480,"LATITUDE":-28.7512,"LONGITUDE":153.4492,"STATE_NAME":"NSW"},{"NAME":"Bora Ridge","POSTCODE":2471,"LATITUDE":-29.0614,"LONGITUDE":153.1856,"STATE_NAME":"NSW"},{"NAME":"Borah Creek","POSTCODE":2346,"LATITUDE":-30.6036,"LONGITUDE":150.5179,"STATE_NAME":"NSW"},{"NAME":"Borambil","POSTCODE":2343,"LATITUDE":-31.5041,"LONGITUDE":150.6383,"STATE_NAME":"NSW"},{"NAME":"Borambola","POSTCODE":2650,"LATITUDE":-35.154,"LONGITUDE":147.6807,"STATE_NAME":"NSW"},{"NAME":"Border Ranges","POSTCODE":2474,"LATITUDE":-28.3926,"LONGITUDE":153.0612,"STATE_NAME":"NSW"},{"NAME":"Boree","POSTCODE":2800,"LATITUDE":-33.2507,"LONGITUDE":148.8355,"STATE_NAME":"NSW"},{"NAME":"Boree Creek","POSTCODE":2652,"LATITUDE":-35.0692,"LONGITUDE":146.5701,"STATE_NAME":"NSW"},{"NAME":"Borenore","POSTCODE":2800,"LATITUDE":-33.2305,"LONGITUDE":148.953,"STATE_NAME":"NSW"},{"NAME":"Boro","POSTCODE":2622,"LATITUDE":-35.2084,"LONGITUDE":149.7013,"STATE_NAME":"NSW"},{"NAME":"Bossley Park","POSTCODE":2176,"LATITUDE":-33.8622,"LONGITUDE":150.8843,"STATE_NAME":"NSW"},{"NAME":"Bostobrick","POSTCODE":2453,"LATITUDE":-30.2768,"LONGITUDE":152.6021,"STATE_NAME":"NSW"},{"NAME":"Botany","POSTCODE":2019,"LATITUDE":-33.949,"LONGITUDE":151.1996,"STATE_NAME":"NSW"},{"NAME":"Botobolar","POSTCODE":2850,"LATITUDE":-32.5224,"LONGITUDE":149.8054,"STATE_NAME":"NSW"},{"NAME":"Bottle Creek","POSTCODE":2469,"LATITUDE":-28.7889,"LONGITUDE":152.6495,"STATE_NAME":"NSW"},{"NAME":"Bouddi","POSTCODE":2251,"LATITUDE":-33.5168,"LONGITUDE":151.4011,"STATE_NAME":"NSW"},{"NAME":"Bourbah","POSTCODE":2828,"LATITUDE":-31.2483,"LONGITUDE":148.1907,"STATE_NAME":"NSW"},{"NAME":"Bourke","POSTCODE":2840,"LATITUDE":-30.1922,"LONGITUDE":146.0187,"STATE_NAME":"NSW"},{"NAME":"Bourkelands","POSTCODE":2650,"LATITUDE":-35.1562,"LONGITUDE":147.348,"STATE_NAME":"NSW"},{"NAME":"Bournda","POSTCODE":2548,"LATITUDE":-36.8246,"LONGITUDE":149.8894,"STATE_NAME":"NSW"},{"NAME":"Bournewood","POSTCODE":2868,"LATITUDE":-32.7538,"LONGITUDE":148.7624,"STATE_NAME":"NSW"},{"NAME":"Bow Bowing","POSTCODE":2566,"LATITUDE":-34.0172,"LONGITUDE":150.84,"STATE_NAME":"NSW"},{"NAME":"Bowan Park","POSTCODE":2864,"LATITUDE":-33.3186,"LONGITUDE":148.8418,"STATE_NAME":"NSW"},{"NAME":"Bowen Mountain","POSTCODE":2753,"LATITUDE":-33.5807,"LONGITUDE":150.6218,"STATE_NAME":"NSW"},{"NAME":"Bowenfels","POSTCODE":2790,"LATITUDE":-33.4806,"LONGITUDE":150.1077,"STATE_NAME":"NSW"},{"NAME":"Bowling Alley Point","POSTCODE":2340,"LATITUDE":-31.3734,"LONGITUDE":151.1417,"STATE_NAME":"NSW"},{"NAME":"Bowman","POSTCODE":2422,"LATITUDE":-31.9229,"LONGITUDE":151.8221,"STATE_NAME":"NSW"},{"NAME":"Bowman Farm","POSTCODE":2422,"LATITUDE":-31.9065,"LONGITUDE":151.9294,"STATE_NAME":"NSW"},{"NAME":"Bowmans Creek","POSTCODE":2330,"LATITUDE":-32.2588,"LONGITUDE":151.1206,"STATE_NAME":"NSW"},{"NAME":"Bowna","POSTCODE":2644,"LATITUDE":-35.9806,"LONGITUDE":147.1573,"STATE_NAME":"NSW"},{"NAME":"Bowning","POSTCODE":2582,"LATITUDE":-34.7509,"LONGITUDE":148.8132,"STATE_NAME":"NSW"},{"NAME":"Bowral","POSTCODE":2576,"LATITUDE":-34.4829,"LONGITUDE":150.4201,"STATE_NAME":"NSW"},{"NAME":"Bowraville","POSTCODE":2449,"LATITUDE":-30.6357,"LONGITUDE":152.8623,"STATE_NAME":"NSW"},{"NAME":"Box Head","POSTCODE":2257,"LATITUDE":-33.5406,"LONGITUDE":151.3337,"STATE_NAME":"NSW"},{"NAME":"Box Hill","POSTCODE":2765,"LATITUDE":-33.6427,"LONGITUDE":150.8991,"STATE_NAME":"NSW"},{"NAME":"Box Ridge","POSTCODE":2357,"LATITUDE":-31.4231,"LONGITUDE":149.4715,"STATE_NAME":"NSW"},{"NAME":"Boxers Creek","POSTCODE":2580,"LATITUDE":-34.771,"LONGITUDE":149.8213,"STATE_NAME":"NSW"},{"NAME":"Boydtown","POSTCODE":2551,"LATITUDE":-37.1049,"LONGITUDE":149.8733,"STATE_NAME":"NSW"},{"NAME":"Bradbury","POSTCODE":2560,"LATITUDE":-34.084,"LONGITUDE":150.8169,"STATE_NAME":"NSW"},{"NAME":"Braefield","POSTCODE":2339,"LATITUDE":-31.5711,"LONGITUDE":150.7017,"STATE_NAME":"NSW"},{"NAME":"Braemar","POSTCODE":2575,"LATITUDE":-34.428,"LONGITUDE":150.4831,"STATE_NAME":"NSW"},{"NAME":"Braemar Bay","POSTCODE":2628,"LATITUDE":-36.1021,"LONGITUDE":148.6707,"STATE_NAME":"NSW"},{"NAME":"Braidwood","POSTCODE":2622,"LATITUDE":-35.4274,"LONGITUDE":149.8076,"STATE_NAME":"NSW"},{"NAME":"Brandy Hill","POSTCODE":2324,"LATITUDE":-32.6893,"LONGITUDE":151.6913,"STATE_NAME":"NSW"},{"NAME":"Branxton","POSTCODE":2335,"LATITUDE":-32.6415,"LONGITUDE":151.3636,"STATE_NAME":"NSW"},{"NAME":"Braunstone","POSTCODE":2460,"LATITUDE":-29.8139,"LONGITUDE":152.9699,"STATE_NAME":"NSW"},{"NAME":"Brawboy","POSTCODE":2337,"LATITUDE":-31.9529,"LONGITUDE":150.6241,"STATE_NAME":"NSW"},{"NAME":"Bray Park","POSTCODE":2484,"LATITUDE":-28.3422,"LONGITUDE":153.3754,"STATE_NAME":"NSW"},{"NAME":"Brays Creek","POSTCODE":2484,"LATITUDE":-28.4125,"LONGITUDE":153.1938,"STATE_NAME":"NSW"},{"NAME":"Brayton","POSTCODE":2579,"LATITUDE":-34.6306,"LONGITUDE":150.0108,"STATE_NAME":"NSW"},{"NAME":"Breadalbane","POSTCODE":2581,"LATITUDE":-34.8003,"LONGITUDE":149.4452,"STATE_NAME":"NSW"},{"NAME":"Breakfast Creek","POSTCODE":2849,"LATITUDE":-32.6594,"LONGITUDE":149.9744,"STATE_NAME":"NSW"},{"NAME":"Breakfast Point","POSTCODE":2137,"LATITUDE":-33.8426,"LONGITUDE":151.111,"STATE_NAME":"NSW"},{"NAME":"Bream Beach","POSTCODE":2540,"LATITUDE":-35.1085,"LONGITUDE":150.6617,"STATE_NAME":"NSW"},{"NAME":"Bredbo","POSTCODE":2626,"LATITUDE":-35.9587,"LONGITUDE":149.1511,"STATE_NAME":"NSW"},{"NAME":"Breelong","POSTCODE":2827,"LATITUDE":-31.8064,"LONGITUDE":148.812,"STATE_NAME":"NSW"},{"NAME":"Breeza","POSTCODE":2381,"LATITUDE":-31.266,"LONGITUDE":150.4391,"STATE_NAME":"NSW"},{"NAME":"Bretti","POSTCODE":2422,"LATITUDE":-31.7965,"LONGITUDE":151.9079,"STATE_NAME":"NSW"},{"NAME":"Brewarrina","POSTCODE":2839,"LATITUDE":-29.9924,"LONGITUDE":146.8808,"STATE_NAME":"NSW"},{"NAME":"Brewongle","POSTCODE":2795,"LATITUDE":-33.4724,"LONGITUDE":149.6892,"STATE_NAME":"NSW"},{"NAME":"Briarbrook","POSTCODE":2365,"LATITUDE":-30.1787,"LONGITUDE":151.3592,"STATE_NAME":"NSW"},{"NAME":"Bribbaree","POSTCODE":2594,"LATITUDE":-34.1105,"LONGITUDE":147.8908,"STATE_NAME":"NSW"},{"NAME":"Bridgman","POSTCODE":2330,"LATITUDE":-32.4542,"LONGITUDE":151.1879,"STATE_NAME":"NSW"},{"NAME":"Brierfield","POSTCODE":2454,"LATITUDE":-30.5155,"LONGITUDE":152.9178,"STATE_NAME":"NSW"},{"NAME":"Brighton Le Sands","POSTCODE":2216,"LATITUDE":-33.9589,"LONGITUDE":151.1541,"STATE_NAME":"NSW"},{"NAME":"Brightwaters","POSTCODE":2264,"LATITUDE":-33.1117,"LONGITUDE":151.545,"STATE_NAME":"NSW"},{"NAME":"Bril Bril","POSTCODE":2441,"LATITUDE":-31.2808,"LONGITUDE":152.5468,"STATE_NAME":"NSW"},{"NAME":"Brimbin","POSTCODE":2430,"LATITUDE":-31.8481,"LONGITUDE":152.4685,"STATE_NAME":"NSW"},{"NAME":"Brindabella","POSTCODE":2611,"LATITUDE":-35.3673,"LONGITUDE":148.6531,"STATE_NAME":"NSW"},{"NAME":"Brinerville","POSTCODE":2454,"LATITUDE":-30.4723,"LONGITUDE":152.501,"STATE_NAME":"NSW"},{"NAME":"Bringelly","POSTCODE":2556,"LATITUDE":-33.9465,"LONGITUDE":150.7252,"STATE_NAME":"NSW"},{"NAME":"Bringenbrong","POSTCODE":3707,"LATITUDE":-36.1486,"LONGITUDE":148.0448,"STATE_NAME":"NSW"},{"NAME":"Brisbane Grove","POSTCODE":2580,"LATITUDE":-34.7961,"LONGITUDE":149.7138,"STATE_NAME":"NSW"},{"NAME":"Broadmeadow","POSTCODE":2292,"LATITUDE":-32.9226,"LONGITUDE":151.73,"STATE_NAME":"NSW"},{"NAME":"Broadwater","POSTCODE":2549,"LATITUDE":-36.972,"LONGITUDE":149.895,"STATE_NAME":"NSW"},{"NAME":"Broadwater","POSTCODE":2472,"LATITUDE":-29.0431,"LONGITUDE":153.4359,"STATE_NAME":"NSW"},{"NAME":"Broadway","POSTCODE":2581,"LATITUDE":-34.7148,"LONGITUDE":149.0761,"STATE_NAME":"NSW"},{"NAME":"Brobenah","POSTCODE":2705,"LATITUDE":-34.384,"LONGITUDE":146.4421,"STATE_NAME":"NSW"},{"NAME":"Brocklehurst","POSTCODE":2830,"LATITUDE":-32.1376,"LONGITUDE":148.6055,"STATE_NAME":"NSW"},{"NAME":"Brocklesby","POSTCODE":2642,"LATITUDE":-35.8122,"LONGITUDE":146.6607,"STATE_NAME":"NSW"},{"NAME":"Brockley","POSTCODE":2365,"LATITUDE":-30.2595,"LONGITUDE":151.8612,"STATE_NAME":"NSW"},{"NAME":"Brodies Plains","POSTCODE":2360,"LATITUDE":-29.8129,"LONGITUDE":151.1992,"STATE_NAME":"NSW"},{"NAME":"Brogans Creek","POSTCODE":2848,"LATITUDE":-32.993,"LONGITUDE":149.9788,"STATE_NAME":"NSW"},{"NAME":"Brogers Creek","POSTCODE":2535,"LATITUDE":-34.6974,"LONGITUDE":150.6913,"STATE_NAME":"NSW"},{"NAME":"Brogo","POSTCODE":2550,"LATITUDE":-36.4762,"LONGITUDE":149.7156,"STATE_NAME":"NSW"},{"NAME":"Broke","POSTCODE":2330,"LATITUDE":-32.7677,"LONGITUDE":151.0948,"STATE_NAME":"NSW"},{"NAME":"Broken Head","POSTCODE":2481,"LATITUDE":-28.73,"LONGITUDE":153.5918,"STATE_NAME":"NSW"},{"NAME":"Broken Hill","POSTCODE":2880,"LATITUDE":-32.3528,"LONGITUDE":141.5603,"STATE_NAME":"NSW"},{"NAME":"Brombin","POSTCODE":2446,"LATITUDE":-31.4577,"LONGITUDE":152.6313,"STATE_NAME":"NSW"},{"NAME":"Bronte","POSTCODE":2024,"LATITUDE":-33.9039,"LONGITUDE":151.2637,"STATE_NAME":"NSW"},{"NAME":"Brookdale","POSTCODE":2656,"LATITUDE":-35.1077,"LONGITUDE":147.012,"STATE_NAME":"NSW"},{"NAME":"Brookfield","POSTCODE":2420,"LATITUDE":-32.5139,"LONGITUDE":151.7546,"STATE_NAME":"NSW"},{"NAME":"Brooklana","POSTCODE":2450,"LATITUDE":-30.2974,"LONGITUDE":152.8747,"STATE_NAME":"NSW"},{"NAME":"Brooklet","POSTCODE":2479,"LATITUDE":-28.7463,"LONGITUDE":153.5081,"STATE_NAME":"NSW"},{"NAME":"Brooklyn","POSTCODE":2083,"LATITUDE":-33.5815,"LONGITUDE":151.234,"STATE_NAME":"NSW"},{"NAME":"Brookong","POSTCODE":2656,"LATITUDE":-35.3008,"LONGITUDE":146.575,"STATE_NAME":"NSW"},{"NAME":"Brookvale","POSTCODE":2100,"LATITUDE":-33.7626,"LONGITUDE":151.2698,"STATE_NAME":"NSW"},{"NAME":"Brooman","POSTCODE":2538,"LATITUDE":-35.4981,"LONGITUDE":150.2607,"STATE_NAME":"NSW"},{"NAME":"Brooms Head","POSTCODE":2463,"LATITUDE":-29.6159,"LONGITUDE":153.2919,"STATE_NAME":"NSW"},{"NAME":"Broughams Gate","POSTCODE":2880,"LATITUDE":-30.9387,"LONGITUDE":141.3057,"STATE_NAME":"NSW"},{"NAME":"Broughton","POSTCODE":2535,"LATITUDE":-34.7564,"LONGITUDE":150.7268,"STATE_NAME":"NSW"},{"NAME":"Broughton Vale","POSTCODE":2535,"LATITUDE":-34.739,"LONGITUDE":150.7055,"STATE_NAME":"NSW"},{"NAME":"Broughton Village","POSTCODE":2534,"LATITUDE":-34.7457,"LONGITUDE":150.7528,"STATE_NAME":"NSW"},{"NAME":"Broulee","POSTCODE":2537,"LATITUDE":-35.8558,"LONGITUDE":150.156,"STATE_NAME":"NSW"},{"NAME":"Brownlow Hill","POSTCODE":2570,"LATITUDE":-34.042,"LONGITUDE":150.6434,"STATE_NAME":"NSW"},{"NAME":"Browns Creek","POSTCODE":2799,"LATITUDE":-33.5363,"LONGITUDE":149.1555,"STATE_NAME":"NSW"},{"NAME":"Browns Mountain","POSTCODE":2540,"LATITUDE":-34.791,"LONGITUDE":150.5293,"STATE_NAME":"NSW"},{"NAME":"Brownsville","POSTCODE":2530,"LATITUDE":-34.4826,"LONGITUDE":150.8119,"STATE_NAME":"NSW"},{"NAME":"Brucedale","POSTCODE":2650,"LATITUDE":-35.0183,"LONGITUDE":147.4261,"STATE_NAME":"NSW"},{"NAME":"Bruie Plains","POSTCODE":2875,"LATITUDE":-32.8263,"LONGITUDE":147.8803,"STATE_NAME":"NSW"},{"NAME":"Bruinbun","POSTCODE":2795,"LATITUDE":-33.1192,"LONGITUDE":149.4881,"STATE_NAME":"NSW"},{"NAME":"Brumby Plains","POSTCODE":2476,"LATITUDE":-28.463,"LONGITUDE":152.6567,"STATE_NAME":"NSW"},{"NAME":"Brundee","POSTCODE":2540,"LATITUDE":-34.8935,"LONGITUDE":150.6567,"STATE_NAME":"NSW"},{"NAME":"Brungle","POSTCODE":2722,"LATITUDE":-35.1492,"LONGITUDE":148.2253,"STATE_NAME":"NSW"},{"NAME":"Brungle Creek","POSTCODE":2722,"LATITUDE":-35.1575,"LONGITUDE":148.2908,"STATE_NAME":"NSW"},{"NAME":"Brunkerville","POSTCODE":2323,"LATITUDE":-32.9533,"LONGITUDE":151.4949,"STATE_NAME":"NSW"},{"NAME":"Brunswick Heads","POSTCODE":2483,"LATITUDE":-28.5587,"LONGITUDE":153.5446,"STATE_NAME":"NSW"},{"NAME":"Brushgrove","POSTCODE":2460,"LATITUDE":-29.56,"LONGITUDE":153.0895,"STATE_NAME":"NSW"},{"NAME":"Brushy Creek","POSTCODE":2365,"LATITUDE":-30.1838,"LONGITUDE":151.5183,"STATE_NAME":"NSW"},{"NAME":"Buangla","POSTCODE":2540,"LATITUDE":-34.8707,"LONGITUDE":150.3956,"STATE_NAME":"NSW"},{"NAME":"Bucca","POSTCODE":2450,"LATITUDE":-30.1317,"LONGITUDE":153.0903,"STATE_NAME":"NSW"},{"NAME":"Bucca Wauka","POSTCODE":2429,"LATITUDE":-32.104,"LONGITUDE":152.1516,"STATE_NAME":"NSW"},{"NAME":"Buccarumbi","POSTCODE":2460,"LATITUDE":-29.816,"LONGITUDE":152.6084,"STATE_NAME":"NSW"},{"NAME":"Buchanan","POSTCODE":2323,"LATITUDE":-32.828,"LONGITUDE":151.531,"STATE_NAME":"NSW"},{"NAME":"Buckajo","POSTCODE":2550,"LATITUDE":-36.6918,"LONGITUDE":149.7548,"STATE_NAME":"NSW"},{"NAME":"Buckaroo","POSTCODE":2850,"LATITUDE":-32.5649,"LONGITUDE":149.6602,"STATE_NAME":"NSW"},{"NAME":"Buckenbowra","POSTCODE":2536,"LATITUDE":-35.6525,"LONGITUDE":149.9815,"STATE_NAME":"NSW"},{"NAME":"Buckenderra","POSTCODE":2630,"LATITUDE":-36.1566,"LONGITUDE":148.7134,"STATE_NAME":"NSW"},{"NAME":"Buckendoon","POSTCODE":2472,"LATITUDE":-29.0374,"LONGITUDE":153.3452,"STATE_NAME":"NSW"},{"NAME":"Bucketty","POSTCODE":2250,"LATITUDE":-33.103,"LONGITUDE":151.1357,"STATE_NAME":"NSW"},{"NAME":"Buckra Bendinni","POSTCODE":2449,"LATITUDE":-30.6458,"LONGITUDE":152.6859,"STATE_NAME":"NSW"},{"NAME":"Budawang","POSTCODE":2622,"LATITUDE":-35.3893,"LONGITUDE":150.0512,"STATE_NAME":"NSW"},{"NAME":"Buddabadah","POSTCODE":2825,"LATITUDE":-31.9423,"LONGITUDE":147.1849,"STATE_NAME":"NSW"},{"NAME":"Budden","POSTCODE":2849,"LATITUDE":-32.5165,"LONGITUDE":150.0607,"STATE_NAME":"NSW"},{"NAME":"Budderoo","POSTCODE":2535,"LATITUDE":-34.6806,"LONGITUDE":150.6541,"STATE_NAME":"NSW"},{"NAME":"Buddong","POSTCODE":2720,"LATITUDE":-35.657,"LONGITUDE":148.2375,"STATE_NAME":"NSW"},{"NAME":"Budgee Budgee","POSTCODE":2850,"LATITUDE":-32.5171,"LONGITUDE":149.6684,"STATE_NAME":"NSW"},{"NAME":"Budgewoi","POSTCODE":2262,"LATITUDE":-33.2395,"LONGITUDE":151.567,"STATE_NAME":"NSW"},{"NAME":"Budgewoi Peninsula","POSTCODE":2262,"LATITUDE":-33.2156,"LONGITUDE":151.5866,"STATE_NAME":"NSW"},{"NAME":"Budgong","POSTCODE":2577,"LATITUDE":-34.8013,"LONGITUDE":150.4697,"STATE_NAME":"NSW"},{"NAME":"Buff Point","POSTCODE":2262,"LATITUDE":-33.232,"LONGITUDE":151.5365,"STATE_NAME":"NSW"},{"NAME":"Bugaldie","POSTCODE":2357,"LATITUDE":-31.1586,"LONGITUDE":149.1392,"STATE_NAME":"NSW"},{"NAME":"Bukalong","POSTCODE":2632,"LATITUDE":-36.7995,"LONGITUDE":149.2132,"STATE_NAME":"NSW"},{"NAME":"Bukkulla","POSTCODE":2360,"LATITUDE":-29.5223,"LONGITUDE":151.1059,"STATE_NAME":"NSW"},{"NAME":"Bulahdelah","POSTCODE":2423,"LATITUDE":-32.3887,"LONGITUDE":152.1635,"STATE_NAME":"NSW"},{"NAME":"Bulee","POSTCODE":2622,"LATITUDE":-35.0232,"LONGITUDE":150.1416,"STATE_NAME":"NSW"},{"NAME":"Bulga","POSTCODE":2330,"LATITUDE":-32.6364,"LONGITUDE":150.9901,"STATE_NAME":"NSW"},{"NAME":"Bulga Forest","POSTCODE":2429,"LATITUDE":-31.6119,"LONGITUDE":152.1902,"STATE_NAME":"NSW"},{"NAME":"Bulgary","POSTCODE":2650,"LATITUDE":-35.0255,"LONGITUDE":146.9508,"STATE_NAME":"NSW"},{"NAME":"Bulla","POSTCODE":2835,"LATITUDE":-32.0329,"LONGITUDE":144.4398,"STATE_NAME":"NSW"},{"NAME":"Bulla Creek","POSTCODE":2594,"LATITUDE":-34.1079,"LONGITUDE":148.2613,"STATE_NAME":"NSW"},{"NAME":"Bullaburra","POSTCODE":2784,"LATITUDE":-33.7277,"LONGITUDE":150.4092,"STATE_NAME":"NSW"},{"NAME":"Bullagreen","POSTCODE":2824,"LATITUDE":-31.3313,"LONGITUDE":148.0486,"STATE_NAME":"NSW"},{"NAME":"Bullarah","POSTCODE":2400,"LATITUDE":-29.4125,"LONGITUDE":149.1319,"STATE_NAME":"NSW"},{"NAME":"Bullatale","POSTCODE":2710,"LATITUDE":-35.72,"LONGITUDE":145.0723,"STATE_NAME":"NSW"},{"NAME":"Bullawa Creek","POSTCODE":2390,"LATITUDE":-30.2518,"LONGITUDE":150.0223,"STATE_NAME":"NSW"},{"NAME":"Bulldog","POSTCODE":2469,"LATITUDE":-29.0324,"LONGITUDE":152.4913,"STATE_NAME":"NSW"},{"NAME":"Bulli","POSTCODE":2516,"LATITUDE":-34.3268,"LONGITUDE":150.9007,"STATE_NAME":"NSW"},{"NAME":"Bulliac","POSTCODE":2422,"LATITUDE":-31.922,"LONGITUDE":152.0203,"STATE_NAME":"NSW"},{"NAME":"Bullio","POSTCODE":2575,"LATITUDE":-34.3309,"LONGITUDE":150.1586,"STATE_NAME":"NSW"},{"NAME":"Bulyeroi","POSTCODE":2387,"LATITUDE":-29.7998,"LONGITUDE":149.14,"STATE_NAME":"NSW"},{"NAME":"Bumbaldry","POSTCODE":2794,"LATITUDE":-33.8676,"LONGITUDE":148.4125,"STATE_NAME":"NSW"},{"NAME":"Bumbalong","POSTCODE":2626,"LATITUDE":-35.8529,"LONGITUDE":149.0989,"STATE_NAME":"NSW"},{"NAME":"Bumberry","POSTCODE":2870,"LATITUDE":-33.1571,"LONGITUDE":148.517,"STATE_NAME":"NSW"},{"NAME":"Bundabah","POSTCODE":2324,"LATITUDE":-32.6704,"LONGITUDE":152.0637,"STATE_NAME":"NSW"},{"NAME":"Bundagen","POSTCODE":2454,"LATITUDE":-30.4217,"LONGITUDE":153.0615,"STATE_NAME":"NSW"},{"NAME":"Bundanoon","POSTCODE":2578,"LATITUDE":-34.6715,"LONGITUDE":150.29,"STATE_NAME":"NSW"},{"NAME":"Bundarra","POSTCODE":2359,"LATITUDE":-30.0965,"LONGITUDE":151.0043,"STATE_NAME":"NSW"},{"NAME":"Bundeena","POSTCODE":2230,"LATITUDE":-34.0849,"LONGITUDE":151.1496,"STATE_NAME":"NSW"},{"NAME":"Bundella","POSTCODE":2343,"LATITUDE":-31.6154,"LONGITUDE":149.977,"STATE_NAME":"NSW"},{"NAME":"Bundemar","POSTCODE":2823,"LATITUDE":-31.8054,"LONGITUDE":148.2277,"STATE_NAME":"NSW"},{"NAME":"Bundewallah","POSTCODE":2535,"LATITUDE":-34.7507,"LONGITUDE":150.6656,"STATE_NAME":"NSW"},{"NAME":"Bundook","POSTCODE":2422,"LATITUDE":-31.896,"LONGITUDE":152.0956,"STATE_NAME":"NSW"},{"NAME":"Bundure","POSTCODE":2700,"LATITUDE":-35.1346,"LONGITUDE":145.8902,"STATE_NAME":"NSW"},{"NAME":"Bungaba","POSTCODE":2852,"LATITUDE":-32.1697,"LONGITUDE":149.675,"STATE_NAME":"NSW"},{"NAME":"Bungabbee","POSTCODE":2480,"LATITUDE":-28.7634,"LONGITUDE":153.1332,"STATE_NAME":"NSW"},{"NAME":"Bungalora","POSTCODE":2486,"LATITUDE":-28.2493,"LONGITUDE":153.4746,"STATE_NAME":"NSW"},{"NAME":"Bungarby","POSTCODE":2630,"LATITUDE":-36.6869,"LONGITUDE":149.0458,"STATE_NAME":"NSW"},{"NAME":"Bungawalbin","POSTCODE":2469,"LATITUDE":-29.0975,"LONGITUDE":153.1763,"STATE_NAME":"NSW"},{"NAME":"Bungendore","POSTCODE":2621,"LATITUDE":-35.296,"LONGITUDE":149.4805,"STATE_NAME":"NSW"},{"NAME":"Bungonia","POSTCODE":2580,"LATITUDE":-34.8785,"LONGITUDE":149.9581,"STATE_NAME":"NSW"},{"NAME":"Bungowannah","POSTCODE":2640,"LATITUDE":-35.9985,"LONGITUDE":146.763,"STATE_NAME":"NSW"},{"NAME":"Bungwahl","POSTCODE":2423,"LATITUDE":-32.367,"LONGITUDE":152.4251,"STATE_NAME":"NSW"},{"NAME":"Bunnaloo","POSTCODE":2731,"LATITUDE":-35.8025,"LONGITUDE":144.5522,"STATE_NAME":"NSW"},{"NAME":"Bunnan","POSTCODE":2337,"LATITUDE":-32.0577,"LONGITUDE":150.5789,"STATE_NAME":"NSW"},{"NAME":"Bunyah","POSTCODE":2429,"LATITUDE":-32.1771,"LONGITUDE":152.1787,"STATE_NAME":"NSW"},{"NAME":"Bunyan","POSTCODE":2630,"LATITUDE":-36.1483,"LONGITUDE":149.1622,"STATE_NAME":"NSW"},{"NAME":"Burcher","POSTCODE":2671,"LATITUDE":-33.4885,"LONGITUDE":147.2325,"STATE_NAME":"NSW"},{"NAME":"Bureen","POSTCODE":2328,"LATITUDE":-32.4729,"LONGITUDE":150.7308,"STATE_NAME":"NSW"},{"NAME":"Burnt Bridge","POSTCODE":2440,"LATITUDE":-31.1078,"LONGITUDE":152.8061,"STATE_NAME":"NSW"},{"NAME":"Burnt Yards","POSTCODE":2792,"LATITUDE":-33.5902,"LONGITUDE":149.0271,"STATE_NAME":"NSW"},{"NAME":"Buronga","POSTCODE":2739,"LATITUDE":-34.157,"LONGITUDE":142.1948,"STATE_NAME":"NSW"},{"NAME":"Burra","POSTCODE":2653,"LATITUDE":-35.8243,"LONGITUDE":148.0892,"STATE_NAME":"NSW"},{"NAME":"Burra","POSTCODE":2620,"LATITUDE":-35.5448,"LONGITUDE":149.2299,"STATE_NAME":"NSW"},{"NAME":"Burra Creek","POSTCODE":2722,"LATITUDE":-34.8952,"LONGITUDE":147.9946,"STATE_NAME":"NSW"},{"NAME":"Burraboi","POSTCODE":2732,"LATITUDE":-35.3442,"LONGITUDE":144.3579,"STATE_NAME":"NSW"},{"NAME":"Burradoo","POSTCODE":2576,"LATITUDE":-34.5115,"LONGITUDE":150.4134,"STATE_NAME":"NSW"},{"NAME":"Burraga","POSTCODE":2795,"LATITUDE":-33.9055,"LONGITUDE":149.545,"STATE_NAME":"NSW"},{"NAME":"Burragate","POSTCODE":2550,"LATITUDE":-37.0023,"LONGITUDE":149.641,"STATE_NAME":"NSW"},{"NAME":"Burrandana","POSTCODE":2650,"LATITUDE":-35.4105,"LONGITUDE":147.3551,"STATE_NAME":"NSW"},{"NAME":"Burraneer","POSTCODE":2230,"LATITUDE":-34.0642,"LONGITUDE":151.1376,"STATE_NAME":"NSW"},{"NAME":"Burrangong","POSTCODE":2594,"LATITUDE":-34.2868,"LONGITUDE":148.2513,"STATE_NAME":"NSW"},{"NAME":"Burrapine","POSTCODE":2447,"LATITUDE":-30.7181,"LONGITUDE":152.6427,"STATE_NAME":"NSW"},{"NAME":"Burrawang","POSTCODE":2577,"LATITUDE":-34.5783,"LONGITUDE":150.5016,"STATE_NAME":"NSW"},{"NAME":"Burrell Creek","POSTCODE":2429,"LATITUDE":-31.9496,"LONGITUDE":152.3013,"STATE_NAME":"NSW"},{"NAME":"Burren Junction","POSTCODE":2386,"LATITUDE":-30.0444,"LONGITUDE":148.8657,"STATE_NAME":"NSW"},{"NAME":"Burrier","POSTCODE":2540,"LATITUDE":-34.8778,"LONGITUDE":150.438,"STATE_NAME":"NSW"},{"NAME":"Burrill Lake","POSTCODE":2539,"LATITUDE":-35.3865,"LONGITUDE":150.4426,"STATE_NAME":"NSW"},{"NAME":"Burringbar","POSTCODE":2483,"LATITUDE":-28.4195,"LONGITUDE":153.464,"STATE_NAME":"NSW"},{"NAME":"Burrinjuck","POSTCODE":2582,"LATITUDE":-34.9575,"LONGITUDE":148.6241,"STATE_NAME":"NSW"},{"NAME":"Burroway","POSTCODE":2821,"LATITUDE":-32.0518,"LONGITUDE":148.3348,"STATE_NAME":"NSW"},{"NAME":"Burrumbuttock","POSTCODE":2642,"LATITUDE":-35.8284,"LONGITUDE":146.793,"STATE_NAME":"NSW"},{"NAME":"Burrundulla","POSTCODE":2850,"LATITUDE":-32.6316,"LONGITUDE":149.6324,"STATE_NAME":"NSW"},{"NAME":"Burwood","POSTCODE":2134,"LATITUDE":-33.8783,"LONGITUDE":151.1041,"STATE_NAME":"NSW"},{"NAME":"Burwood Heights","POSTCODE":2136,"LATITUDE":-33.8893,"LONGITUDE":151.1039,"STATE_NAME":"NSW"},{"NAME":"Busby","POSTCODE":2168,"LATITUDE":-33.9112,"LONGITUDE":150.8809,"STATE_NAME":"NSW"},{"NAME":"Busbys Flat","POSTCODE":2469,"LATITUDE":-29.0743,"LONGITUDE":152.7756,"STATE_NAME":"NSW"},{"NAME":"Bushells Ridge","POSTCODE":2259,"LATITUDE":-33.2032,"LONGITUDE":151.4744,"STATE_NAME":"NSW"},{"NAME":"Buttaba","POSTCODE":2283,"LATITUDE":-33.0498,"LONGITUDE":151.5766,"STATE_NAME":"NSW"},{"NAME":"Buttai","POSTCODE":2323,"LATITUDE":-32.832,"LONGITUDE":151.5608,"STATE_NAME":"NSW"},{"NAME":"Butterwick","POSTCODE":2321,"LATITUDE":-32.6507,"LONGITUDE":151.6483,"STATE_NAME":"NSW"},{"NAME":"Buxton","POSTCODE":2571,"LATITUDE":-34.2558,"LONGITUDE":150.5309,"STATE_NAME":"NSW"},{"NAME":"Byabarra","POSTCODE":2446,"LATITUDE":-31.5341,"LONGITUDE":152.5394,"STATE_NAME":"NSW"},{"NAME":"Byadbo Wilderness","POSTCODE":2628,"LATITUDE":-36.8251,"LONGITUDE":148.6201,"STATE_NAME":"NSW"},{"NAME":"Byangum","POSTCODE":2484,"LATITUDE":-28.3579,"LONGITUDE":153.363,"STATE_NAME":"NSW"},{"NAME":"Bylong","POSTCODE":2849,"LATITUDE":-32.401,"LONGITUDE":150.1347,"STATE_NAME":"NSW"},{"NAME":"Byng","POSTCODE":2800,"LATITUDE":-33.346,"LONGITUDE":149.2376,"STATE_NAME":"NSW"},{"NAME":"Byrock","POSTCODE":2831,"LATITUDE":-30.5038,"LONGITUDE":146.4299,"STATE_NAME":"NSW"},{"NAME":"Byron Bay","POSTCODE":2481,"LATITUDE":-28.6468,"LONGITUDE":153.617,"STATE_NAME":"NSW"},{"NAME":"Byrrill Creek","POSTCODE":2484,"LATITUDE":-28.44,"LONGITUDE":153.2417,"STATE_NAME":"NSW"},{"NAME":"Bywong","POSTCODE":2621,"LATITUDE":-35.1738,"LONGITUDE":149.326,"STATE_NAME":"NSW"},{"NAME":"Cabarita","POSTCODE":2137,"LATITUDE":-33.8452,"LONGITUDE":151.1159,"STATE_NAME":"NSW"},{"NAME":"Cabarita Beach","POSTCODE":2488,"LATITUDE":-28.3462,"LONGITUDE":153.5732,"STATE_NAME":"NSW"},{"NAME":"Cabbage Tree Island","POSTCODE":2430,"LATITUDE":-31.946,"LONGITUDE":152.5912,"STATE_NAME":"NSW"},{"NAME":"Cabbage Tree Island","POSTCODE":2477,"LATITUDE":-28.9797,"LONGITUDE":153.4566,"STATE_NAME":"NSW"},{"NAME":"Cabramatta","POSTCODE":2166,"LATITUDE":-33.8982,"LONGITUDE":150.9354,"STATE_NAME":"NSW"},{"NAME":"Cabramatta West","POSTCODE":2166,"LATITUDE":-33.893,"LONGITUDE":150.9118,"STATE_NAME":"NSW"},{"NAME":"Cabramurra","POSTCODE":2629,"LATITUDE":-35.9916,"LONGITUDE":148.4476,"STATE_NAME":"NSW"},{"NAME":"Cadgee","POSTCODE":2545,"LATITUDE":-36.1581,"LONGITUDE":149.8997,"STATE_NAME":"NSW"},{"NAME":"Cadia","POSTCODE":2800,"LATITUDE":-33.443,"LONGITUDE":149.0097,"STATE_NAME":"NSW"},{"NAME":"Caerleon","POSTCODE":2850,"LATITUDE":-32.5789,"LONGITUDE":149.5487,"STATE_NAME":"NSW"},{"NAME":"Caffreys Flat","POSTCODE":2424,"LATITUDE":-31.7915,"LONGITUDE":152.0626,"STATE_NAME":"NSW"},{"NAME":"Cairncross","POSTCODE":2446,"LATITUDE":-31.3432,"LONGITUDE":152.6902,"STATE_NAME":"NSW"},{"NAME":"Calala","POSTCODE":2340,"LATITUDE":-31.1687,"LONGITUDE":150.9776,"STATE_NAME":"NSW"},{"NAME":"Calamia","POSTCODE":2460,"LATITUDE":-29.8463,"LONGITUDE":153.1201,"STATE_NAME":"NSW"},{"NAME":"Calderwood","POSTCODE":2527,"LATITUDE":-34.5606,"LONGITUDE":150.7252,"STATE_NAME":"NSW"},{"NAME":"Caldwell","POSTCODE":2710,"LATITUDE":-35.5959,"LONGITUDE":144.5106,"STATE_NAME":"NSW"},{"NAME":"Calga","POSTCODE":2250,"LATITUDE":-33.4277,"LONGITUDE":151.2252,"STATE_NAME":"NSW"},{"NAME":"Califat","POSTCODE":2729,"LATITUDE":-35.2437,"LONGITUDE":148.0993,"STATE_NAME":"NSW"},{"NAME":"Calimo","POSTCODE":2710,"LATITUDE":-35.405,"LONGITUDE":144.5663,"STATE_NAME":"NSW"},{"NAME":"Callaghan","POSTCODE":2308,"LATITUDE":-32.8903,"LONGITUDE":151.7022,"STATE_NAME":"NSW"},{"NAME":"Callaghans Creek","POSTCODE":2422,"LATITUDE":-31.8522,"LONGITUDE":152.015,"STATE_NAME":"NSW"},{"NAME":"Callala Bay","POSTCODE":2540,"LATITUDE":-34.9939,"LONGITUDE":150.7172,"STATE_NAME":"NSW"},{"NAME":"Callala Beach","POSTCODE":2540,"LATITUDE":-35.0033,"LONGITUDE":150.6998,"STATE_NAME":"NSW"},{"NAME":"Calliope","POSTCODE":2462,"LATITUDE":-29.6158,"LONGITUDE":153.0744,"STATE_NAME":"NSW"},{"NAME":"Caloola","POSTCODE":2795,"LATITUDE":-33.6396,"LONGITUDE":149.4349,"STATE_NAME":"NSW"},{"NAME":"Cambalong","POSTCODE":2632,"LATITUDE":-36.8996,"LONGITUDE":149.1344,"STATE_NAME":"NSW"},{"NAME":"Camberwell","POSTCODE":2330,"LATITUDE":-32.486,"LONGITUDE":151.089,"STATE_NAME":"NSW"},{"NAME":"Cambewarra","POSTCODE":2540,"LATITUDE":-34.8149,"LONGITUDE":150.555,"STATE_NAME":"NSW"},{"NAME":"Cambewarra Village","POSTCODE":2540,"LATITUDE":-34.8214,"LONGITUDE":150.559,"STATE_NAME":"NSW"},{"NAME":"Camboon","POSTCODE":2849,"LATITUDE":-32.7037,"LONGITUDE":149.9595,"STATE_NAME":"NSW"},{"NAME":"Cambra","POSTCODE":2420,"LATITUDE":-32.4411,"LONGITUDE":151.8674,"STATE_NAME":"NSW"},{"NAME":"Cambridge Gardens","POSTCODE":2747,"LATITUDE":-33.738,"LONGITUDE":150.7207,"STATE_NAME":"NSW"},{"NAME":"Cambridge Park","POSTCODE":2747,"LATITUDE":-33.7496,"LONGITUDE":150.7267,"STATE_NAME":"NSW"},{"NAME":"Cambridge Plateau","POSTCODE":2469,"LATITUDE":-28.8066,"LONGITUDE":152.7323,"STATE_NAME":"NSW"},{"NAME":"Camden","POSTCODE":2570,"LATITUDE":-34.0589,"LONGITUDE":150.6937,"STATE_NAME":"NSW"},{"NAME":"Camden Head","POSTCODE":2443,"LATITUDE":-31.6426,"LONGITUDE":152.831,"STATE_NAME":"NSW"},{"NAME":"Camden Park","POSTCODE":2570,"LATITUDE":-34.0945,"LONGITUDE":150.7173,"STATE_NAME":"NSW"},{"NAME":"Camden South","POSTCODE":2570,"LATITUDE":-34.0822,"LONGITUDE":150.7006,"STATE_NAME":"NSW"},{"NAME":"Camellia","POSTCODE":2142,"LATITUDE":-33.8193,"LONGITUDE":151.0345,"STATE_NAME":"NSW"},{"NAME":"Cameron Park","POSTCODE":2285,"LATITUDE":-32.9008,"LONGITUDE":151.6162,"STATE_NAME":"NSW"},{"NAME":"Camerons Creek","POSTCODE":2359,"LATITUDE":-30.3286,"LONGITUDE":151.0923,"STATE_NAME":"NSW"},{"NAME":"Camira","POSTCODE":2469,"LATITUDE":-29.2196,"LONGITUDE":152.9316,"STATE_NAME":"NSW"},{"NAME":"Cammeray","POSTCODE":2062,"LATITUDE":-33.8227,"LONGITUDE":151.2142,"STATE_NAME":"NSW"},{"NAME":"Camp Creek","POSTCODE":4385,"LATITUDE":-28.8042,"LONGITUDE":150.9293,"STATE_NAME":"NSW"},{"NAME":"Campbelltown","POSTCODE":2560,"LATITUDE":-34.0643,"LONGITUDE":150.8204,"STATE_NAME":"NSW"},{"NAME":"Camperdown","POSTCODE":2050,"LATITUDE":-33.8886,"LONGITUDE":151.1822,"STATE_NAME":"NSW"},{"NAME":"Campsie","POSTCODE":2194,"LATITUDE":-33.9128,"LONGITUDE":151.1034,"STATE_NAME":"NSW"},{"NAME":"Campvale","POSTCODE":2318,"LATITUDE":-32.7746,"LONGITUDE":151.8506,"STATE_NAME":"NSW"},{"NAME":"Cams Wharf","POSTCODE":2281,"LATITUDE":-33.1245,"LONGITUDE":151.6176,"STATE_NAME":"NSW"},{"NAME":"Canada Bay","POSTCODE":2046,"LATITUDE":-33.8645,"LONGITUDE":151.115,"STATE_NAME":"NSW"},{"NAME":"Canadian Lead","POSTCODE":2850,"LATITUDE":-32.4046,"LONGITUDE":149.5865,"STATE_NAME":"NSW"},{"NAME":"Canbelego","POSTCODE":2835,"LATITUDE":-31.522,"LONGITUDE":146.2499,"STATE_NAME":"NSW"},{"NAME":"Candelo","POSTCODE":2550,"LATITUDE":-36.7836,"LONGITUDE":149.6607,"STATE_NAME":"NSW"},{"NAME":"Cangai","POSTCODE":2460,"LATITUDE":-29.498,"LONGITUDE":152.4538,"STATE_NAME":"NSW"},{"NAME":"Caniaba","POSTCODE":2480,"LATITUDE":-28.8339,"LONGITUDE":153.2159,"STATE_NAME":"NSW"},{"NAME":"Canley Heights","POSTCODE":2166,"LATITUDE":-33.882,"LONGITUDE":150.9247,"STATE_NAME":"NSW"},{"NAME":"Canley Vale","POSTCODE":2166,"LATITUDE":-33.8849,"LONGITUDE":150.9466,"STATE_NAME":"NSW"},{"NAME":"Canobolas","POSTCODE":2800,"LATITUDE":-33.3568,"LONGITUDE":148.9884,"STATE_NAME":"NSW"},{"NAME":"Canoelands","POSTCODE":2157,"LATITUDE":-33.5003,"LONGITUDE":151.0905,"STATE_NAME":"NSW"},{"NAME":"Canonba","POSTCODE":2825,"LATITUDE":-31.3136,"LONGITUDE":147.4399,"STATE_NAME":"NSW"},{"NAME":"Canowindra","POSTCODE":2804,"LATITUDE":-33.5337,"LONGITUDE":148.6757,"STATE_NAME":"NSW"},{"NAME":"Canterbury","POSTCODE":2193,"LATITUDE":-33.9106,"LONGITUDE":151.117,"STATE_NAME":"NSW"},{"NAME":"Canton Beach","POSTCODE":2263,"LATITUDE":-33.2711,"LONGITUDE":151.5449,"STATE_NAME":"NSW"},{"NAME":"Canyonleigh","POSTCODE":2577,"LATITUDE":-34.4853,"LONGITUDE":150.1413,"STATE_NAME":"NSW"},{"NAME":"Caparra","POSTCODE":2429,"LATITUDE":-31.7217,"LONGITUDE":152.2331,"STATE_NAME":"NSW"},{"NAME":"Capeen Creek","POSTCODE":2469,"LATITUDE":-28.5492,"LONGITUDE":152.6484,"STATE_NAME":"NSW"},{"NAME":"Capertee","POSTCODE":2846,"LATITUDE":-33.1194,"LONGITUDE":150.0247,"STATE_NAME":"NSW"},{"NAME":"Capoompeta","POSTCODE":2371,"LATITUDE":-29.3881,"LONGITUDE":152.066,"STATE_NAME":"NSW"},{"NAME":"Captains Flat","POSTCODE":2623,"LATITUDE":-35.5718,"LONGITUDE":149.424,"STATE_NAME":"NSW"},{"NAME":"Carabost","POSTCODE":2650,"LATITUDE":-35.6109,"LONGITUDE":147.7192,"STATE_NAME":"NSW"},{"NAME":"Caragabal","POSTCODE":2810,"LATITUDE":-33.8207,"LONGITUDE":147.6918,"STATE_NAME":"NSW"},{"NAME":"Carcalgong","POSTCODE":2850,"LATITUDE":-32.8649,"LONGITUDE":149.6988,"STATE_NAME":"NSW"},{"NAME":"Carcoar","POSTCODE":2791,"LATITUDE":-33.6189,"LONGITUDE":149.1537,"STATE_NAME":"NSW"},{"NAME":"Cardiff","POSTCODE":2285,"LATITUDE":-32.943,"LONGITUDE":151.6549,"STATE_NAME":"NSW"},{"NAME":"Cardiff Heights","POSTCODE":2285,"LATITUDE":-32.9366,"LONGITUDE":151.6745,"STATE_NAME":"NSW"},{"NAME":"Cardiff South","POSTCODE":2285,"LATITUDE":-32.9537,"LONGITUDE":151.6661,"STATE_NAME":"NSW"},{"NAME":"Carey Bay","POSTCODE":2283,"LATITUDE":-33.0262,"LONGITUDE":151.6046,"STATE_NAME":"NSW"},{"NAME":"Cargo","POSTCODE":2800,"LATITUDE":-33.4059,"LONGITUDE":148.8173,"STATE_NAME":"NSW"},{"NAME":"Carinda","POSTCODE":2831,"LATITUDE":-30.3824,"LONGITUDE":147.6186,"STATE_NAME":"NSW"},{"NAME":"Caringbah","POSTCODE":2229,"LATITUDE":-34.0356,"LONGITUDE":151.1254,"STATE_NAME":"NSW"},{"NAME":"Caringbah South","POSTCODE":2229,"LATITUDE":-34.0538,"LONGITUDE":151.1198,"STATE_NAME":"NSW"},{"NAME":"Carlaminda","POSTCODE":2630,"LATITUDE":-36.2641,"LONGITUDE":149.3057,"STATE_NAME":"NSW"},{"NAME":"Carlingford","POSTCODE":2118,"LATITUDE":-33.7745,"LONGITUDE":151.0446,"STATE_NAME":"NSW"},{"NAME":"Carlton","POSTCODE":2218,"LATITUDE":-33.9718,"LONGITUDE":151.1215,"STATE_NAME":"NSW"},{"NAME":"Carnes Hill","POSTCODE":2171,"LATITUDE":-33.9375,"LONGITUDE":150.8486,"STATE_NAME":"NSW"},{"NAME":"Carnham","POSTCODE":2460,"LATITUDE":-29.3483,"LONGITUDE":152.5763,"STATE_NAME":"NSW"},{"NAME":"Carool","POSTCODE":2486,"LATITUDE":-28.224,"LONGITUDE":153.4286,"STATE_NAME":"NSW"},{"NAME":"Caroona","POSTCODE":2343,"LATITUDE":-31.3958,"LONGITUDE":150.4185,"STATE_NAME":"NSW"},{"NAME":"Carrabolla","POSTCODE":2311,"LATITUDE":-32.1794,"LONGITUDE":151.3935,"STATE_NAME":"NSW"},{"NAME":"Carrai","POSTCODE":2440,"LATITUDE":-30.8331,"LONGITUDE":152.2486,"STATE_NAME":"NSW"},{"NAME":"Carramar","POSTCODE":2163,"LATITUDE":-33.8841,"LONGITUDE":150.9637,"STATE_NAME":"NSW"},{"NAME":"Carrathool","POSTCODE":2711,"LATITUDE":-34.4138,"LONGITUDE":145.4506,"STATE_NAME":"NSW"},{"NAME":"Carrick","POSTCODE":2580,"LATITUDE":-34.6973,"LONGITUDE":149.9094,"STATE_NAME":"NSW"},{"NAME":"Carrington","POSTCODE":2294,"LATITUDE":-32.9122,"LONGITUDE":151.7679,"STATE_NAME":"NSW"},{"NAME":"Carrington","POSTCODE":2324,"LATITUDE":-32.6601,"LONGITUDE":152.0186,"STATE_NAME":"NSW"},{"NAME":"Carrington Falls","POSTCODE":2577,"LATITUDE":-34.642,"LONGITUDE":150.652,"STATE_NAME":"NSW"},{"NAME":"Carroll","POSTCODE":2340,"LATITUDE":-31.0037,"LONGITUDE":150.4452,"STATE_NAME":"NSW"},{"NAME":"Carrolls Creek","POSTCODE":2372,"LATITUDE":-28.8323,"LONGITUDE":152.0901,"STATE_NAME":"NSW"},{"NAME":"Carrowbrook","POSTCODE":2330,"LATITUDE":-32.2913,"LONGITUDE":151.3038,"STATE_NAME":"NSW"},{"NAME":"Carrs Creek","POSTCODE":2460,"LATITUDE":-29.6557,"LONGITUDE":152.9226,"STATE_NAME":"NSW"},{"NAME":"Carrs Island","POSTCODE":2460,"LATITUDE":-29.6696,"LONGITUDE":152.9116,"STATE_NAME":"NSW"},{"NAME":"Carrs Peninsular","POSTCODE":2460,"LATITUDE":-29.6534,"LONGITUDE":152.9058,"STATE_NAME":"NSW"},{"NAME":"Carss Park","POSTCODE":2221,"LATITUDE":-33.9872,"LONGITUDE":151.1183,"STATE_NAME":"NSW"},{"NAME":"Cartwright","POSTCODE":2168,"LATITUDE":-33.9245,"LONGITUDE":150.892,"STATE_NAME":"NSW"},{"NAME":"Cartwrights Hill","POSTCODE":2650,"LATITUDE":-35.0749,"LONGITUDE":147.3911,"STATE_NAME":"NSW"},{"NAME":"Carwell","POSTCODE":2849,"LATITUDE":-32.8398,"LONGITUDE":149.9045,"STATE_NAME":"NSW"},{"NAME":"Carwoola","POSTCODE":2620,"LATITUDE":-35.3806,"LONGITUDE":149.3133,"STATE_NAME":"NSW"},{"NAME":"Cascade","POSTCODE":2453,"LATITUDE":-30.2311,"LONGITUDE":152.7865,"STATE_NAME":"NSW"},{"NAME":"Casino","POSTCODE":2470,"LATITUDE":-28.8533,"LONGITUDE":153.0327,"STATE_NAME":"NSW"},{"NAME":"Cassilis","POSTCODE":2329,"LATITUDE":-31.9764,"LONGITUDE":150.0087,"STATE_NAME":"NSW"},{"NAME":"Castle Cove","POSTCODE":2069,"LATITUDE":-33.7859,"LONGITUDE":151.2123,"STATE_NAME":"NSW"},{"NAME":"Castle Doyle","POSTCODE":2350,"LATITUDE":-30.6349,"LONGITUDE":151.7862,"STATE_NAME":"NSW"},{"NAME":"Castle Hill","POSTCODE":2154,"LATITUDE":-33.7302,"LONGITUDE":150.9994,"STATE_NAME":"NSW"},{"NAME":"Castle Rock","POSTCODE":2333,"LATITUDE":-32.2363,"LONGITUDE":150.758,"STATE_NAME":"NSW"},{"NAME":"Castlecrag","POSTCODE":2068,"LATITUDE":-33.8003,"LONGITUDE":151.2205,"STATE_NAME":"NSW"},{"NAME":"Castlereagh","POSTCODE":2749,"LATITUDE":-33.6859,"LONGITUDE":150.6812,"STATE_NAME":"NSW"},{"NAME":"Casuarina","POSTCODE":2487,"LATITUDE":-28.3026,"LONGITUDE":153.5713,"STATE_NAME":"NSW"},{"NAME":"Casula","POSTCODE":2170,"LATITUDE":-33.9521,"LONGITUDE":150.8961,"STATE_NAME":"NSW"},{"NAME":"Catalina","POSTCODE":2536,"LATITUDE":-35.7298,"LONGITUDE":150.1854,"STATE_NAME":"NSW"},{"NAME":"Cataract","POSTCODE":2560,"LATITUDE":-34.3108,"LONGITUDE":150.817,"STATE_NAME":"NSW"},{"NAME":"Cathcart","POSTCODE":2632,"LATITUDE":-36.8626,"LONGITUDE":149.4259,"STATE_NAME":"NSW"},{"NAME":"Catherine Field","POSTCODE":2557,"LATITUDE":-33.9967,"LONGITUDE":150.7705,"STATE_NAME":"NSW"},{"NAME":"Catherine Hill Bay","POSTCODE":2281,"LATITUDE":-33.15,"LONGITUDE":151.6269,"STATE_NAME":"NSW"},{"NAME":"Cathundral","POSTCODE":2823,"LATITUDE":-31.9635,"LONGITUDE":147.7481,"STATE_NAME":"NSW"},{"NAME":"Cattai","POSTCODE":2756,"LATITUDE":-33.5439,"LONGITUDE":150.9177,"STATE_NAME":"NSW"},{"NAME":"Cattle Creek","POSTCODE":2339,"LATITUDE":-31.7701,"LONGITUDE":150.2488,"STATE_NAME":"NSW"},{"NAME":"Cavan","POSTCODE":2582,"LATITUDE":-35.0496,"LONGITUDE":148.8398,"STATE_NAME":"NSW"},{"NAME":"Caves Beach","POSTCODE":2281,"LATITUDE":-33.1094,"LONGITUDE":151.6456,"STATE_NAME":"NSW"},{"NAME":"Cawdor","POSTCODE":2570,"LATITUDE":-34.0959,"LONGITUDE":150.6643,"STATE_NAME":"NSW"},{"NAME":"Cawongla","POSTCODE":2474,"LATITUDE":-28.6046,"LONGITUDE":153.095,"STATE_NAME":"NSW"},{"NAME":"Cecil Hills","POSTCODE":2171,"LATITUDE":-33.8874,"LONGITUDE":150.8431,"STATE_NAME":"NSW"},{"NAME":"Cecil Park","POSTCODE":2178,"LATITUDE":-33.882,"LONGITUDE":150.8111,"STATE_NAME":"NSW"},{"NAME":"Cedar Brush Creek","POSTCODE":2259,"LATITUDE":-33.1627,"LONGITUDE":151.2519,"STATE_NAME":"NSW"},{"NAME":"Cedar Creek","POSTCODE":2325,"LATITUDE":-32.8354,"LONGITUDE":151.1598,"STATE_NAME":"NSW"},{"NAME":"Cedar Creek","POSTCODE":2484,"LATITUDE":-28.4211,"LONGITUDE":153.2657,"STATE_NAME":"NSW"},{"NAME":"Cedar Party","POSTCODE":2429,"LATITUDE":-31.8129,"LONGITUDE":152.3838,"STATE_NAME":"NSW"},{"NAME":"Cedar Point","POSTCODE":2474,"LATITUDE":-28.6978,"LONGITUDE":153.0018,"STATE_NAME":"NSW"},{"NAME":"Cells River","POSTCODE":2424,"LATITUDE":-31.6508,"LONGITUDE":152.0725,"STATE_NAME":"NSW"},{"NAME":"Centennial Park","POSTCODE":2021,"LATITUDE":-33.8977,"LONGITUDE":151.2341,"STATE_NAME":"NSW"},{"NAME":"Central Colo","POSTCODE":2756,"LATITUDE":-33.4223,"LONGITUDE":150.7678,"STATE_NAME":"NSW"},{"NAME":"Central Macdonald","POSTCODE":2775,"LATITUDE":-33.3358,"LONGITUDE":150.9712,"STATE_NAME":"NSW"},{"NAME":"Central Mangrove","POSTCODE":2250,"LATITUDE":-33.2834,"LONGITUDE":151.2517,"STATE_NAME":"NSW"},{"NAME":"Central Tilba","POSTCODE":2546,"LATITUDE":-36.3045,"LONGITUDE":150.0754,"STATE_NAME":"NSW"},{"NAME":"Cessnock","POSTCODE":2325,"LATITUDE":-32.8334,"LONGITUDE":151.3561,"STATE_NAME":"NSW"},{"NAME":"Chaelundi","POSTCODE":2460,"LATITUDE":-29.9834,"LONGITUDE":152.4403,"STATE_NAME":"NSW"},{"NAME":"Chain Valley Bay","POSTCODE":2259,"LATITUDE":-33.1637,"LONGITUDE":151.5729,"STATE_NAME":"NSW"},{"NAME":"Chakola","POSTCODE":2630,"LATITUDE":-36.0739,"LONGITUDE":149.1791,"STATE_NAME":"NSW"},{"NAME":"Chambigne","POSTCODE":2460,"LATITUDE":-29.7701,"LONGITUDE":152.7381,"STATE_NAME":"NSW"},{"NAME":"Charbon","POSTCODE":2848,"LATITUDE":-32.8838,"LONGITUDE":149.9705,"STATE_NAME":"NSW"},{"NAME":"Charles Sturt University","POSTCODE":2678,"LATITUDE":-35.0578,"LONGITUDE":147.3544,"STATE_NAME":"NSW"},{"NAME":"Charlestown","POSTCODE":2290,"LATITUDE":-32.9682,"LONGITUDE":151.6931,"STATE_NAME":"NSW"},{"NAME":"Charleys Forest","POSTCODE":2622,"LATITUDE":-35.3602,"LONGITUDE":150.0027,"STATE_NAME":"NSW"},{"NAME":"Charlotte Bay","POSTCODE":2428,"LATITUDE":-32.3528,"LONGITUDE":152.5072,"STATE_NAME":"NSW"},{"NAME":"Charlton","POSTCODE":2795,"LATITUDE":-33.6725,"LONGITUDE":149.6436,"STATE_NAME":"NSW"},{"NAME":"Charmhaven","POSTCODE":2263,"LATITUDE":-33.226,"LONGITUDE":151.4908,"STATE_NAME":"NSW"},{"NAME":"Chatham Valley","POSTCODE":2787,"LATITUDE":-33.8431,"LONGITUDE":149.8762,"STATE_NAME":"NSW"},{"NAME":"Chatsbury","POSTCODE":2580,"LATITUDE":-34.5295,"LONGITUDE":149.805,"STATE_NAME":"NSW"},{"NAME":"Chatswood","POSTCODE":2067,"LATITUDE":-33.7957,"LONGITUDE":151.1812,"STATE_NAME":"NSW"},{"NAME":"Chatswood West","POSTCODE":2067,"LATITUDE":-33.7953,"LONGITUDE":151.1626,"STATE_NAME":"NSW"},{"NAME":"Chatsworth","POSTCODE":2469,"LATITUDE":-29.3893,"LONGITUDE":153.2476,"STATE_NAME":"NSW"},{"NAME":"Cheero Point","POSTCODE":2083,"LATITUDE":-33.5097,"LONGITUDE":151.1933,"STATE_NAME":"NSW"},{"NAME":"Cheltenham","POSTCODE":2119,"LATITUDE":-33.7568,"LONGITUDE":151.0775,"STATE_NAME":"NSW"},{"NAME":"Cherry Tree Hill","POSTCODE":2360,"LATITUDE":-29.5577,"LONGITUDE":151.0126,"STATE_NAME":"NSW"},{"NAME":"Cherrybrook","POSTCODE":2126,"LATITUDE":-33.7228,"LONGITUDE":151.046,"STATE_NAME":"NSW"},{"NAME":"Chester Hill","POSTCODE":2162,"LATITUDE":-33.8808,"LONGITUDE":150.9979,"STATE_NAME":"NSW"},{"NAME":"Chichester","POSTCODE":2420,"LATITUDE":-32.1651,"LONGITUDE":151.6319,"STATE_NAME":"NSW"},{"NAME":"Chifley","POSTCODE":2036,"LATITUDE":-33.9694,"LONGITUDE":151.2397,"STATE_NAME":"NSW"},{"NAME":"Chilcotts Creek","POSTCODE":2339,"LATITUDE":-31.6684,"LONGITUDE":150.8353,"STATE_NAME":"NSW"},{"NAME":"Chilcotts Grass","POSTCODE":2480,"LATITUDE":-28.833,"LONGITUDE":153.3434,"STATE_NAME":"NSW"},{"NAME":"Chillingham","POSTCODE":2484,"LATITUDE":-28.3137,"LONGITUDE":153.2822,"STATE_NAME":"NSW"},{"NAME":"Chinderah","POSTCODE":2487,"LATITUDE":-28.2494,"LONGITUDE":153.5398,"STATE_NAME":"NSW"},{"NAME":"Chinnock","POSTCODE":2550,"LATITUDE":-36.6954,"LONGITUDE":149.9389,"STATE_NAME":"NSW"},{"NAME":"Chippendale","POSTCODE":2008,"LATITUDE":-33.8862,"LONGITUDE":151.2,"STATE_NAME":"NSW"},{"NAME":"Chipping Norton","POSTCODE":2170,"LATITUDE":-33.9146,"LONGITUDE":150.9567,"STATE_NAME":"NSW"},{"NAME":"Chisholm","POSTCODE":2322,"LATITUDE":-32.7531,"LONGITUDE":151.6352,"STATE_NAME":"NSW"},{"NAME":"Chiswick","POSTCODE":2046,"LATITUDE":-33.8497,"LONGITUDE":151.1379,"STATE_NAME":"NSW"},{"NAME":"Chittaway Bay","POSTCODE":2261,"LATITUDE":-33.3267,"LONGITUDE":151.4369,"STATE_NAME":"NSW"},{"NAME":"Chittaway Point","POSTCODE":2261,"LATITUDE":-33.3223,"LONGITUDE":151.4431,"STATE_NAME":"NSW"},{"NAME":"Chowan Creek","POSTCODE":2484,"LATITUDE":-28.4579,"LONGITUDE":153.3784,"STATE_NAME":"NSW"},{"NAME":"Chullora","POSTCODE":2190,"LATITUDE":-33.8925,"LONGITUDE":151.0475,"STATE_NAME":"NSW"},{"NAME":"Church Point","POSTCODE":2105,"LATITUDE":-33.6492,"LONGITUDE":151.2789,"STATE_NAME":"NSW"},{"NAME":"Clandulla","POSTCODE":2848,"LATITUDE":-32.9302,"LONGITUDE":149.9616,"STATE_NAME":"NSW"},{"NAME":"Clare","POSTCODE":2711,"LATITUDE":-33.4675,"LONGITUDE":143.9839,"STATE_NAME":"NSW"},{"NAME":"Claremont Meadows","POSTCODE":2747,"LATITUDE":-33.775,"LONGITUDE":150.753,"STATE_NAME":"NSW"},{"NAME":"Clarence","POSTCODE":2790,"LATITUDE":-33.4706,"LONGITUDE":150.2103,"STATE_NAME":"NSW"},{"NAME":"Clarence Town","POSTCODE":2321,"LATITUDE":-32.5922,"LONGITUDE":151.7623,"STATE_NAME":"NSW"},{"NAME":"Clarendon","POSTCODE":2756,"LATITUDE":-33.6105,"LONGITUDE":150.7891,"STATE_NAME":"NSW"},{"NAME":"Clarenza","POSTCODE":2460,"LATITUDE":-29.6996,"LONGITUDE":153.001,"STATE_NAME":"NSW"},{"NAME":"Clareville","POSTCODE":2107,"LATITUDE":-33.6355,"LONGITUDE":151.3091,"STATE_NAME":"NSW"},{"NAME":"Claymore","POSTCODE":2559,"LATITUDE":-34.0471,"LONGITUDE":150.8103,"STATE_NAME":"NSW"},{"NAME":"Clear Creek","POSTCODE":2795,"LATITUDE":-33.3336,"LONGITUDE":149.7099,"STATE_NAME":"NSW"},{"NAME":"Clear Range","POSTCODE":2620,"LATITUDE":-35.7009,"LONGITUDE":149.1142,"STATE_NAME":"NSW"},{"NAME":"Clearfield","POSTCODE":2469,"LATITUDE":-29.1533,"LONGITUDE":152.91,"STATE_NAME":"NSW"},{"NAME":"Clemton Park","POSTCODE":2206,"LATITUDE":-33.9257,"LONGITUDE":151.1048,"STATE_NAME":"NSW"},{"NAME":"Clergate","POSTCODE":2800,"LATITUDE":-33.1872,"LONGITUDE":149.1083,"STATE_NAME":"NSW"},{"NAME":"Cleveland","POSTCODE":2530,"LATITUDE":-34.5036,"LONGITUDE":150.7686,"STATE_NAME":"NSW"},{"NAME":"Clifden","POSTCODE":2460,"LATITUDE":-29.5127,"LONGITUDE":152.9474,"STATE_NAME":"NSW"},{"NAME":"Cliftleigh","POSTCODE":2321,"LATITUDE":-32.789,"LONGITUDE":151.5186,"STATE_NAME":"NSW"},{"NAME":"Clifton","POSTCODE":2515,"LATITUDE":-34.2582,"LONGITUDE":150.9687,"STATE_NAME":"NSW"},{"NAME":"Clifton Grove","POSTCODE":2800,"LATITUDE":-33.2409,"LONGITUDE":149.1691,"STATE_NAME":"NSW"},{"NAME":"Clontarf","POSTCODE":2093,"LATITUDE":-33.8079,"LONGITUDE":151.254,"STATE_NAME":"NSW"},{"NAME":"Clothiers Creek","POSTCODE":2484,"LATITUDE":-28.3341,"LONGITUDE":153.4794,"STATE_NAME":"NSW"},{"NAME":"Clouds Creek","POSTCODE":2453,"LATITUDE":-30.102,"LONGITUDE":152.652,"STATE_NAME":"NSW"},{"NAME":"Clovass","POSTCODE":2480,"LATITUDE":-28.8665,"LONGITUDE":153.1584,"STATE_NAME":"NSW"},{"NAME":"Clovelly","POSTCODE":2031,"LATITUDE":-33.9116,"LONGITUDE":151.2631,"STATE_NAME":"NSW"},{"NAME":"Clunes","POSTCODE":2480,"LATITUDE":-28.7255,"LONGITUDE":153.4097,"STATE_NAME":"NSW"},{"NAME":"Clybucca","POSTCODE":2440,"LATITUDE":-30.927,"LONGITUDE":152.9536,"STATE_NAME":"NSW"},{"NAME":"Clyde","POSTCODE":2142,"LATITUDE":-33.8332,"LONGITUDE":151.0218,"STATE_NAME":"NSW"},{"NAME":"Clydesdale","POSTCODE":2330,"LATITUDE":-32.571,"LONGITUDE":151.2106,"STATE_NAME":"NSW"},{"NAME":"Coal Point","POSTCODE":2283,"LATITUDE":-33.0374,"LONGITUDE":151.6099,"STATE_NAME":"NSW"},{"NAME":"Coalcliff","POSTCODE":2508,"LATITUDE":-34.245,"LONGITUDE":150.9704,"STATE_NAME":"NSW"},{"NAME":"Coaldale","POSTCODE":2460,"LATITUDE":-29.3995,"LONGITUDE":152.8053,"STATE_NAME":"NSW"},{"NAME":"Coasters Retreat","POSTCODE":2108,"LATITUDE":-33.6048,"LONGITUDE":151.299,"STATE_NAME":"NSW"},{"NAME":"Cobaki","POSTCODE":2486,"LATITUDE":-28.2052,"LONGITUDE":153.4578,"STATE_NAME":"NSW"},{"NAME":"Cobaki Lakes","POSTCODE":2486,"LATITUDE":-28.1748,"LONGITUDE":153.4798,"STATE_NAME":"NSW"},{"NAME":"Cobar","POSTCODE":2835,"LATITUDE":-31.4841,"LONGITUDE":145.8105,"STATE_NAME":"NSW"},{"NAME":"Cobar Park","POSTCODE":2790,"LATITUDE":-33.4662,"LONGITUDE":150.1571,"STATE_NAME":"NSW"},{"NAME":"Cobargo","POSTCODE":2550,"LATITUDE":-36.3947,"LONGITUDE":149.8698,"STATE_NAME":"NSW"},{"NAME":"Cobark","POSTCODE":2422,"LATITUDE":-31.9161,"LONGITUDE":151.6854,"STATE_NAME":"NSW"},{"NAME":"Cobbadah","POSTCODE":2347,"LATITUDE":-30.2018,"LONGITUDE":150.5673,"STATE_NAME":"NSW"},{"NAME":"Cobbitty","POSTCODE":2570,"LATITUDE":-33.9853,"LONGITUDE":150.6799,"STATE_NAME":"NSW"},{"NAME":"Cobramunga","POSTCODE":2732,"LATITUDE":-35.4364,"LONGITUDE":143.89,"STATE_NAME":"NSW"},{"NAME":"Cockwhy","POSTCODE":2539,"LATITUDE":-35.5579,"LONGITUDE":150.3276,"STATE_NAME":"NSW"},{"NAME":"Codrington","POSTCODE":2471,"LATITUDE":-28.9541,"LONGITUDE":153.2506,"STATE_NAME":"NSW"},{"NAME":"Coffee Camp","POSTCODE":2480,"LATITUDE":-28.6532,"LONGITUDE":153.2235,"STATE_NAME":"NSW"},{"NAME":"Coffs Harbour","POSTCODE":2450,"LATITUDE":-30.3085,"LONGITUDE":153.1073,"STATE_NAME":"NSW"},{"NAME":"Coggan","POSTCODE":2849,"LATITUDE":-32.3766,"LONGITUDE":150.0767,"STATE_NAME":"NSW"},{"NAME":"Cogra Bay","POSTCODE":2083,"LATITUDE":-33.5194,"LONGITUDE":151.2244,"STATE_NAME":"NSW"},{"NAME":"Coila","POSTCODE":2537,"LATITUDE":-36.0102,"LONGITUDE":150.0996,"STATE_NAME":"NSW"},{"NAME":"Coldstream","POSTCODE":2462,"LATITUDE":-29.6006,"LONGITUDE":153.1102,"STATE_NAME":"NSW"},{"NAME":"Coleambally","POSTCODE":2707,"LATITUDE":-34.8023,"LONGITUDE":145.8936,"STATE_NAME":"NSW"},{"NAME":"Colebee","POSTCODE":2761,"LATITUDE":-33.7246,"LONGITUDE":150.8559,"STATE_NAME":"NSW"},{"NAME":"Coledale","POSTCODE":2515,"LATITUDE":-34.2889,"LONGITUDE":150.9416,"STATE_NAME":"NSW"},{"NAME":"Colinroobie","POSTCODE":2700,"LATITUDE":-34.4681,"LONGITUDE":146.561,"STATE_NAME":"NSW"},{"NAME":"Colinton","POSTCODE":2626,"LATITUDE":-35.8641,"LONGITUDE":149.1957,"STATE_NAME":"NSW"},{"NAME":"Collarenebri","POSTCODE":2833,"LATITUDE":-29.4249,"LONGITUDE":148.5149,"STATE_NAME":"NSW"},{"NAME":"Collaroy","POSTCODE":2097,"LATITUDE":-33.7395,"LONGITUDE":151.3033,"STATE_NAME":"NSW"},{"NAME":"Collaroy Plateau","POSTCODE":2097,"LATITUDE":-33.7298,"LONGITUDE":151.2895,"STATE_NAME":"NSW"},{"NAME":"Collector","POSTCODE":2581,"LATITUDE":-34.9405,"LONGITUDE":149.4212,"STATE_NAME":"NSW"},{"NAME":"Collendina","POSTCODE":2646,"LATITUDE":-35.9714,"LONGITUDE":146.2323,"STATE_NAME":"NSW"},{"NAME":"Collerina","POSTCODE":2839,"LATITUDE":-29.5326,"LONGITUDE":146.6815,"STATE_NAME":"NSW"},{"NAME":"Collie","POSTCODE":2827,"LATITUDE":-31.6932,"LONGITUDE":148.2759,"STATE_NAME":"NSW"},{"NAME":"Collingullie","POSTCODE":2650,"LATITUDE":-35.0935,"LONGITUDE":147.0913,"STATE_NAME":"NSW"},{"NAME":"Collingwood","POSTCODE":2850,"LATITUDE":-32.6009,"LONGITUDE":149.4536,"STATE_NAME":"NSW"},{"NAME":"Collins Creek","POSTCODE":2474,"LATITUDE":-28.4767,"LONGITUDE":153.0372,"STATE_NAME":"NSW"},{"NAME":"Collombatti","POSTCODE":2440,"LATITUDE":-30.9553,"LONGITUDE":152.8075,"STATE_NAME":"NSW"},{"NAME":"Collum Collum","POSTCODE":2460,"LATITUDE":-29.262,"LONGITUDE":152.4804,"STATE_NAME":"NSW"},{"NAME":"Colly Blue","POSTCODE":2343,"LATITUDE":-31.4508,"LONGITUDE":150.1442,"STATE_NAME":"NSW"},{"NAME":"Colo","POSTCODE":2795,"LATITUDE":-33.7784,"LONGITUDE":149.2647,"STATE_NAME":"NSW"},{"NAME":"Colo","POSTCODE":2756,"LATITUDE":-33.4105,"LONGITUDE":150.8058,"STATE_NAME":"NSW"},{"NAME":"Colo Heights","POSTCODE":2756,"LATITUDE":-33.29,"LONGITUDE":150.6969,"STATE_NAME":"NSW"},{"NAME":"Colo Vale","POSTCODE":2575,"LATITUDE":-34.3947,"LONGITUDE":150.4561,"STATE_NAME":"NSW"},{"NAME":"Colongra","POSTCODE":2262,"LATITUDE":-33.2092,"LONGITUDE":151.5438,"STATE_NAME":"NSW"},{"NAME":"Colyton","POSTCODE":2760,"LATITUDE":-33.7822,"LONGITUDE":150.7959,"STATE_NAME":"NSW"},{"NAME":"Comara","POSTCODE":2440,"LATITUDE":-30.6872,"LONGITUDE":152.3882,"STATE_NAME":"NSW"},{"NAME":"Combaning","POSTCODE":2666,"LATITUDE":-34.4836,"LONGITUDE":147.6506,"STATE_NAME":"NSW"},{"NAME":"Combara","POSTCODE":2829,"LATITUDE":-31.1538,"LONGITUDE":148.294,"STATE_NAME":"NSW"},{"NAME":"Comberton","POSTCODE":2540,"LATITUDE":-34.9712,"LONGITUDE":150.6482,"STATE_NAME":"NSW"},{"NAME":"Combo","POSTCODE":2330,"LATITUDE":-32.5517,"LONGITUDE":151.1848,"STATE_NAME":"NSW"},{"NAME":"Comboyne","POSTCODE":2429,"LATITUDE":-31.5952,"LONGITUDE":152.4714,"STATE_NAME":"NSW"},{"NAME":"Come By Chance","POSTCODE":2832,"LATITUDE":-30.345,"LONGITUDE":148.4355,"STATE_NAME":"NSW"},{"NAME":"Comerong Island","POSTCODE":2540,"LATITUDE":-34.883,"LONGITUDE":150.7394,"STATE_NAME":"NSW"},{"NAME":"Commissioners Creek","POSTCODE":2484,"LATITUDE":-28.5039,"LONGITUDE":153.3369,"STATE_NAME":"NSW"},{"NAME":"Como","POSTCODE":2226,"LATITUDE":-34.0015,"LONGITUDE":151.0622,"STATE_NAME":"NSW"},{"NAME":"Comobella","POSTCODE":2820,"LATITUDE":-32.3794,"LONGITUDE":148.9695,"STATE_NAME":"NSW"},{"NAME":"Conargo","POSTCODE":2710,"LATITUDE":-35.2486,"LONGITUDE":145.2056,"STATE_NAME":"NSW"},{"NAME":"Concord","POSTCODE":2137,"LATITUDE":-33.8566,"LONGITUDE":151.1067,"STATE_NAME":"NSW"},{"NAME":"Concord West","POSTCODE":2138,"LATITUDE":-33.8427,"LONGITUDE":151.0919,"STATE_NAME":"NSW"},{"NAME":"Condell Park","POSTCODE":2200,"LATITUDE":-33.9258,"LONGITUDE":151.0116,"STATE_NAME":"NSW"},{"NAME":"Condobolin","POSTCODE":2877,"LATITUDE":-32.7476,"LONGITUDE":146.9673,"STATE_NAME":"NSW"},{"NAME":"Condong","POSTCODE":2484,"LATITUDE":-28.3115,"LONGITUDE":153.4415,"STATE_NAME":"NSW"},{"NAME":"Coneac","POSTCODE":2422,"LATITUDE":-31.8562,"LONGITUDE":151.8145,"STATE_NAME":"NSW"},{"NAME":"Congarinni","POSTCODE":2447,"LATITUDE":-30.7532,"LONGITUDE":152.8713,"STATE_NAME":"NSW"},{"NAME":"Congarinni North","POSTCODE":2447,"LATITUDE":-30.6855,"LONGITUDE":152.8912,"STATE_NAME":"NSW"},{"NAME":"Congewai","POSTCODE":2325,"LATITUDE":-32.9917,"LONGITUDE":151.3009,"STATE_NAME":"NSW"},{"NAME":"Congo","POSTCODE":2537,"LATITUDE":-35.9565,"LONGITUDE":150.1351,"STATE_NAME":"NSW"},{"NAME":"Conimbia","POSTCODE":2829,"LATITUDE":-30.6701,"LONGITUDE":148.0204,"STATE_NAME":"NSW"},{"NAME":"Coniston","POSTCODE":2500,"LATITUDE":-34.4374,"LONGITUDE":150.8816,"STATE_NAME":"NSW"},{"NAME":"Conjola","POSTCODE":2539,"LATITUDE":-35.2269,"LONGITUDE":150.4134,"STATE_NAME":"NSW"},{"NAME":"Conjola Park","POSTCODE":2539,"LATITUDE":-35.2633,"LONGITUDE":150.443,"STATE_NAME":"NSW"},{"NAME":"Connells Point","POSTCODE":2221,"LATITUDE":-33.9865,"LONGITUDE":151.0936,"STATE_NAME":"NSW"},{"NAME":"Constitution Hill","POSTCODE":2145,"LATITUDE":-33.7931,"LONGITUDE":150.9758,"STATE_NAME":"NSW"},{"NAME":"Coogee","POSTCODE":2034,"LATITUDE":-33.9196,"LONGITUDE":151.2549,"STATE_NAME":"NSW"},{"NAME":"Cookamidgera","POSTCODE":2870,"LATITUDE":-33.2395,"LONGITUDE":148.3048,"STATE_NAME":"NSW"},{"NAME":"Cookardinia","POSTCODE":2650,"LATITUDE":-35.569,"LONGITUDE":147.2508,"STATE_NAME":"NSW"},{"NAME":"Cooks Gap","POSTCODE":2850,"LATITUDE":-32.3539,"LONGITUDE":149.7173,"STATE_NAME":"NSW"},{"NAME":"Cooks Hill","POSTCODE":2300,"LATITUDE":-32.9336,"LONGITUDE":151.7673,"STATE_NAME":"NSW"},{"NAME":"Cooks Myalls","POSTCODE":2870,"LATITUDE":-33.014,"LONGITUDE":147.9846,"STATE_NAME":"NSW"},{"NAME":"Coolabah","POSTCODE":2831,"LATITUDE":-30.9998,"LONGITUDE":146.7006,"STATE_NAME":"NSW"},{"NAME":"Coolac","POSTCODE":2727,"LATITUDE":-34.8972,"LONGITUDE":148.2083,"STATE_NAME":"NSW"},{"NAME":"Coolagolite","POSTCODE":2550,"LATITUDE":-36.4395,"LONGITUDE":149.9713,"STATE_NAME":"NSW"},{"NAME":"Coolah","POSTCODE":2843,"LATITUDE":-31.7845,"LONGITUDE":149.7653,"STATE_NAME":"NSW"},{"NAME":"Coolamon","POSTCODE":2701,"LATITUDE":-34.794,"LONGITUDE":147.2051,"STATE_NAME":"NSW"},{"NAME":"Coolangatta","POSTCODE":2535,"LATITUDE":-34.8506,"LONGITUDE":150.7105,"STATE_NAME":"NSW"},{"NAME":"Coolangubra","POSTCODE":2550,"LATITUDE":-37.0024,"LONGITUDE":149.4555,"STATE_NAME":"NSW"},{"NAME":"Coolatai","POSTCODE":2402,"LATITUDE":-29.2466,"LONGITUDE":150.7381,"STATE_NAME":"NSW"},{"NAME":"Cooleman","POSTCODE":2611,"LATITUDE":-35.6667,"LONGITUDE":148.7331,"STATE_NAME":"NSW"},{"NAME":"Cooleys Creek","POSTCODE":2729,"LATITUDE":-35.342,"LONGITUDE":148.0921,"STATE_NAME":"NSW"},{"NAME":"Coolgardie","POSTCODE":2478,"LATITUDE":-28.9159,"LONGITUDE":153.4625,"STATE_NAME":"NSW"},